$GPGLL,5144.96884,N,00355.16998,E,125921.00,A,A*66
!AIVDM,1,1,,B,1815@H@01dP?>OVMdTDk4jD`00Rt,0*43
!AIVDM,1,1,,A,D02E35iqlg6D000000000000000,2*70
!AIVDM,1,1,,A,13aENTPP010BWnBMfLp86?vb2D6V,0*36
!AIVDM,1,1,,B,H3`j6PTTG1D385I@5noni00h6310,0*68
!AIVDM,1,1,,A,139EKv0P000BPKrMaWeMiOvd0H<l,0*51
!AIVDM,1,1,,B,B3a?T6P0004Ls3WIebL03wbUoP06,0*1F
!AIVDM,1,1,,B,13boCr?P000BMpdMapNP0?vb2<4q,0*4D
!AIVDM,1,1,,A,13al3>0000PAt9@MSGSiLpPd2H<r,0*67
$GPRMC,125922.00,A,5144.96815,N,00355.16958,E,2.758,200.01,041015,,,A*6C
$GPVTG,200.01,T,,M,2.758,N,5.109,K,A*3B
!AIVDM,1,1,,B,B3`fGAP0004In3WHL4@@CwbUkP06,0*4D
!AIVDM,1,1,,A,B3aDC6h0084IdWWHL4wQ3wd5oP06,0*74
$GPGGA,125922.00,5144.96815,N,00355.16958,E,1,10,1.06,-6.9,M,45.9,M,,*78
$GPGSA,M,3,08,18,32,14,22,11,19,01,27,04,,,2.11,1.06,1.83*0C
$GPGSV,4,1,13,01,38,270,30,03,06,216,,04,67,274,31,08,76,196,21*70
!AIVDM,1,1,,A,B3bbWf@0:p4S6V7Ia`fngwc5oP06,0*53
!AIVDO,1,1,,,B39qLF006h4O4WWIiu5u3wj5kP06,0*74
!AIVDM,1,1,,A,13bIIn100q0@R7lMWb9qUon`05Sd,0*27
$GPGSV,4,2,13,10,30,147,25,11,50,280,20,14,27,101,34,18,12,050,18*76
$GPGSV,4,3,13,19,59,294,25,22,47,065,33,27,42,146,32,28,22,319,11*70
!AIVDM,1,1,,B,19NSBI@vAw0?>80MbFWo1mRb00SK,0*27
$GPGSV,4,4,13,32,38,199,19*48
$GPGLL,5144.96815,N,00355.16958,E,125922.00,A,A*61
!AIVDM,1,1,,B,B3`e<k@0>@4bKqWI8wUIGwc5kP06,0*72
!AIVDM,1,1,,A,402E35iuvR<sFPAO`@MVUr7008=B,0*50
!AIVDM,1,1,,B,B3P<=g@07@4Wc<WID@Nugwc5oP06,0*07
!AIVDM,1,1,,A,13aGtg?P01PAg?rMVpCl2?vd20SN,0*00
!AIVDM,1,1,,A,13aN`dP00:PAqCvMiib9R3ld00Rt,0*69
!AIVDM,1,1,,B,19NSGK002?0BISHMKJoL19Td0H=H,0*4B
!AIVDM,2,1,6,A,53cWtJ02=648T8HR220H5Hth622222222222221DBPP;E6OE0BlSm51DQ0CH,0*0E
!AIVDM,2,2,6,A,88888888880,2*22
!AIVDM,1,1,,A,33aBNJ@01<PC<H:MSqgcs9Ld00vP,0*0E
$GPRMC,125923.00,A,5144.96745,N,00355.16915,E,2.791,200.57,041015,,,A*68
!AIVDM,1,1,,A,13baM<002;0ATf4Mi;3TAk>d25Sd,0*10
$GPVTG,200.57,T,,M,2.791,N,5.169,K,A*3B
!AIVDM,1,1,,A,13b0<T70000BMUnMaqa`HFhf0L:1,0*36
$GPGGA,125923.00,5144.96745,N,00355.16915,E,1,10,1.06,-6.8,M,45.9,M,,*7B
!AIVDM,1,1,,A,13`hqgPP00PBMcTMf7j:F?vdR8=`,0*42
$GPGSA,M,3,08,18,32,14,22,11,19,01,27,04,,,2.11,1.06,1.83*0C
$GPGSV,4,1,13,01,38,270,30,03,06,216,,04,67,274,31,08,76,196,22*73
!AIVDM,1,1,,B,13P;BW500MPBM@0MgEc<29Rd02SW,0*05
!AIVDO,1,1,,,B39qLF006h4O4UWIitauGwjUkP06,0*37
$GPGSV,4,2,13,10,30,147,27,11,50,280,19,14,27,101,33,18,12,050,18*79
!AIVDM,1,1,,B,13P7enP000P@NC0Me5OUe2Bf0<34,0*79
!AIVDM,1,1,,A,13M@H>PP170AME:MhTHDtgvf00S4,0*03
$GPGSV,4,3,13,19,59,294,25,22,47,065,32,27,42,146,32,28,22,319,11*71
$GPGSV,4,4,13,32,38,199,19*48
$GPGLL,5144.96745,N,00355.16915,E,125923.00,A,A*63
!AIVDM,1,1,,B,B3aLkC009@4Qn87HA83@swcUCP06,0*49
!AIVDM,1,1,,B,13b?AJ7P000BOV0Mahk00?vf0<<P,0*2D
!AIVDM,1,1,,A,13aDrqwP00PCW:RMdGbjG?vdR5Sd,0*55
!AIVDM,1,1,,A,14`Vlj00000BtaHMfq:501>b0D<C,0*3F
!AIVDM,1,1,,A,13a4od0P00P@WJ@MMvQP0?vh2D1=,0*4B
$GPRMC,125924.00,A,5144.96679,N,00355.16876,E,2.668,199.92,041015,,,A*68
!AIVDM,1,1,,B,13Hn?2?P000BhbHMSunP0?vb0<2C,0*60
!AIVDM,1,1,,B,13bmVR00000BGgVMflcrWU2h05Sd,0*14
$GPVTG,199.92,T,,M,2.668,N,4.941,K,A*35
!AIVDM,1,1,,B,E>jN6<0W6@1WPab3bPa2@LtP0000:usB?9TV@00003v010,4*64
$GPGGA,125924.00,5144.96679,N,00355.16876,E,1,10,1.06,-6.8,M,45.9,M,,*76
!AIVDM,1,1,,A,B3aN1H@0@P4TCh7Go1g4kwcUkP06,0*40
!AIVDM,1,1,,B,13aQ76w0000BPNRMabf:;1Dh00S7,0*3F
!AIVDM,1,1,,A,33aFfAHP02PBGN6MQUNe2Ovj25HC,0*1E
$GPGSA,M,3,08,18,32,14,22,11,19,01,27,04,,,2.11,1.06,1.83*0C
$GPGSV,4,1,13,01,38,270,31,03,06,216,,04,67,274,33,08,76,196,23*71
!AIVDO,1,1,,,B39qLF006P4O4SWIit=twwk5kP06,0*05
$GPGSV,4,
$GPGSV,4,3,13,19,59,294,25,22,47,065,32,27,42,146,33,28,22,319,12*73
!AIVDM,1,1,,A,13aDp3@P00PC2G4MekEBiOvf2<90,0*75
!AIVDM,1,1,,A,33B54H001qPAj;hMiNI:q`pf0100,0*5A
$GPGSV,4,4,13,32,38,199,19*48
$GPGLL,5144.96679,N,00355.16876,E,125924.00,A,A*6E
!AIVDM,1,1,,A,144bjw001CPBgK4MgVkD?kJh20SG,0*23
!AIVDM,1,1,,A,13c6wl0PB40@vrLMIrhnBTtf08>T,0*52
!AIVDM,1,1,,B,13bB<r7P00PBM<@MascP0?vh2<7T,0*1D
!AIVDM,1,1,,A,13bA6V9002P@cMdMVr;7Bo<j0@>`,0*06
$GPRMC,125925.00,A,5144.96617,N,00355.16837,E,2.519,201.10,041015,,,A*69
$GPVTG,201.10,T,,M,2.519,N,4.665,K,A*31
$GPGGA,125925.00,5144.96617,N,00355.16837,E,1,10,1.06,-6.7,M,45.9,M,,*75
!AIVDM,1,1,,A,13aJmt01BVP@42tMihP:IHPh@5Sd,0*3C
$GPGSA,M,3,08,18,32,14,22,11,19,01,27,04,,,2.11,1.06,1.83*0C
!AIVDM,1,1,,B,B3aKVTP0?04UA87ILueICwdUoP06,0*5C
!AIVDM,1,1,,B,13aJH1@P00PCg=fMcVRh0?vj2@>n,0*39
!AIVDM,1,1,,A,13aIjp@P01PAfWBMVnLh>gvj2SwA,0*26
$GPGSV,4,1,13,01,38,270,31,03,06,216,,04,67,274,32,08,76,196,25*76
!AIVDM,1,1,,B,139ebL0P00PBeibMfCn@0?vj28>p,0*58
$GPGSV,4,2,13,10,30,147,30,11,50,280,19,14,27,101,34,18,12,050,18*78
!AIVDO,1,1,,,B39qLF006@4O4QWIismugwkUkP06,0*31
$GPGSV,4,3,13,19,59,294,26,22,47,065,32,27,42,146,33,28,22,319,12*70
!AIVDM,1,1,,B,13aEQ8PP00PBOp8MaiS00?vj2<59,0*48
$GPGSV,4,4,13,32,38,199,19*48
!AIVDM,1,1,,B,13aFegPP00PBLrLMfu>v4?vj20SP,0*62
$GPGLL,5144.96617,N,00355.16837,E,125925.00,A,A*62
!AIVDM,1,1,,B,18JwNt001I0CHC:MeFomM4Hl0LBc,0*7D
!AIVDM,1,1,,B,13aL?2PP00PAqlhMVNq00?vj28?5,0*64
!AIVDM,1,1,,A,13aIiphP00PBMjFMf4Ef4?vj20S2,0*16
!AIVDM,1,1,,A,13aC2D8P00PBOKnMefFpkOvj20SD,0*35
!AIVDM,1,1,,B,B3`oWs00=P4Q0?7Ic>4tkwdUkP06,0*0B
!AIVDM,1,1,,A,B3aI:P@0004NqS7HmAtpWwdUkP06,0*46
!AIVDM,1,1,,B,B3`ekTh0=P4MOlWHg3@OgwdUoP06,0*5D
$GPRMC,125926.00,A,5144.96560,N,00355.16796,E,2.338,202.36,041015,,,A*6F
$GPVTG,202.36,T,,M,2.338,N,4.329,K,A*3E
!AIVDM,1,1,,B,13bRKv0000PBbC`MfQO0N:hl00Sm,0*32
$GPGGA,125926.00,5144.96560,N,00355.16796,E,1,10,1.06,-6.6,M,45.9,M,,*70
!AIVDM,1,1,,B,13K2?v10?wP?EL8M`4gf40hd08?H,0*6F
$GPGSA,M,3,08,18,32,14,22,11,19,01,27,04,,,2.11,1.06,1.83*0C
!AIVDM,1,1,,B,33aDq:PP00PD8DpMTcqWlgvjR383,0*72
!AIVDM,1,1,,A,13aC4bOP000BRolMfHV8Ngvn25Sd,0*60
$GPGSV,4,1,13,01,38,270,30,03,06,216,,04,67,274,32,08,76,196,26*74
$GPGSV,4,2,13,10,30,147,30,11,50,280,29,14,27,101,34,18,12,050,20*70
!AIVDO,1,1,,,B39qLF005h4O4OWIisQvOwl5kP06,0*74
$GPGSV,4,3,13,19,59,294,25,22,47,065,31,27,42,146,32,28,22,319,18*7B
!AIVDM,1,1,,A,13aJHp00000BSc4MMv;PS8Hl08?R,0*76
$GPGSV,4,4,13,32,38,199,21*43
!AIVDM,1,1,,B,34SW9J10030?t7tMdlTc5c2n0000,0*17
!AIVDM,1,1,,A,133uF3PP000BMu6Mf5oP0?vj05Sd,0*6B
$GPGLL,5144.96560,N,00355.16796,E,125926.00,A,A*66
!AIVDM,1,1,,A,13aDrn@01oPBb@pMRkf8dG0lRH?e,0*66
!AIVDM,1,1,,A,13esJd00010BQAlMfil7iUHn0<<<,0*1C
!AIVDM,1,1,,A,33aDCs0P00PBBSjMfmg=`gvhP22A,0*2E
$GPRMC,125927.00,A,5144.96500,N,00355.16753,E,2.377,203.56,041015,,,A*6D
$GPVTG,203.56,T,,M,2.377,N,4.403,K,A*3D
!AIVDM,1,1,,B,17722:0wAIPCBeDMem?5:42n08?r,0*49
$GPGGA,125927.00,5144.96500,N,00355.16753,E,1,10,1.06,-6.5,M,45.9,M,,*7D
$GPGSA,M,3,08,18,32,14,22,11,19,01,27,04,,,2.11,1.06,1.83*0C
!AIVDM,1,1,,A,13aDrF@P00PBgG8MfK6;;OvVRD84,0*0C
$GPGSV,4,1,13,01,38,270,28,03,06,216,,04,67,274,31,08,76,196,26*7E
$GPGSV,4,2,13,10,30,147,30,11,50,280,31,14,27,101,35,18,12,050,23*7B
!AIVDO,1,1,,,B39qLF005h4O4MWIis9w?wlUkP06,0*0F
$GPGSV,4,3,13,19,59,294,26,22,47,065,30,27,42,146,31,28,22,319,23*72
$GPGSV,4,4,13,32,38,199,23*41
$GPGLL,5144.96500,N,00355.16753,E,125927.00,A,A*68
!AIVDM,1,1,,A,177Ccn0018P>jtfMWOQ`p7=60@@;,0*65
!AIVDM,1,1,,B,13aGDV0P00PBO<>Mew=3P?vlR8@;,0*19
!AIVDM,1,1,,B,83aJH1@j2d<dttf>=R9PqgbP<PP0,0*2E
!AIVDM,1,1,,B,14acLv0000P@cQ>MN9AiTItp0d5I,0*27
!AIVDM,1,1,,A,13bMOT00000AkwHMVq38L:`n08@G,0*23
!AIVDM,1,1,,A,33aDolw00uPB7CvMQ2Ko6mbn21th,0*50
!AIVDM,1,1,,B,H34H:sP4TlhE=<0000000000000,2*29
!AIVDM,1,1,,A,15DcaV00290ACtLMHcm4R3dl0D38,0*1A
$GPRMC,125928.00,A,5144.96441,N,00355.16710,E,2.368,204.89,041015,,,A*6A
!AIVDM,1,1,,A,13aOAC@P0HPCGN6Md=bLl?vpR5Sd,0*73
$GPVTG,204.89,T,,M,2.368,N,4.385,K,A*3F
!AIVDM,1,1,,B,13`w<J00000Bi1JMSTT5S3fp05Sd,0*49
!AIVDM,1,1,,A,13P7GbW0?wPBOuVMagJN49`n00Rt,0*5D
!AIVDM,1,1,,B,13aEOhhP1>PBe?:Mf5Ll8Ovn2@@R,0*50
$GPGGA,125928.00,5144.96441,N,00355.16710,E,1,10,1.07,-6.3,M,45.9,M,,*76
$GPGSA,M,3,08,18,32,14,22,11,19,01,27,04,,,2.11,1.07,1.83*0D
!AIVDM,1,1,,A,13bDQF7P?w<tSF0l4Q@>4?wv1`@R,0*69
!AIVDM,1,1,,B,13eP8V00000BPrHMab00544h08@V,0*69
$GPGSV,4,1,13,01,38,270,28,03,06,216,,04,67,274,31,08,76,196,26*7E
!AIVDM,1,1,,A,13aCp`?P00PBhoPMSSGh0?vp28@`,0*7D
$GPGSV,4,2,13,10,30,147,29,11,50,280,30,14,27,101,35,18,12,050,24*75
!AIVDM,1,1,,B,13Kudb00000BN7:MffVbdBTr0D7p,0*64
!AIVDO,1,1,,,B39qLF005h4O4KWIirj03wm5kP06,0*71
$GPGSV,4,3,13,19,59,294,26,22,47,065,30,27,42,146,32,28,22,319,26*74
$GPGSV,4,4,13,32,38,199,23*41
!AIVDM,1,1,,A,39NSGK002>0BIJ:MKKKL1qTp01pQ,0*74
$GPGLL,5144.96441,N,00355.16710,E,125928.00,A,A*64
!AIVDM,1,1,,B,13aOAT@P00PBNJJMfswf4?vpR@@k,0*2D
!AIVDM,1,1,,A,13clad0v1u0@BopMf7VjrR>n@`@l,0*5D
!AIVDM,1,1,,B,33B54H001qPAj3bMiNRbt8rp00oA,0*7E
!AIVDM,1,1,,A,E02E340W6@1WPab3bPa200000000:usB?9TV@00003v010,4*1F
!AIVDM,1,1,,B,13b5sh000QPC6IhMf:oU<Svp08@s,0*77
!AIVDM,1,1,,B,13baM<002:0ATq@Mi:k4:C>p2<5:,0*3E
!AIVDM,1,1,,A,B3aJJLP0884Rs57H3cc@?wf5oP06,0*14
!AIVDM,1,1,,A,277VjP5000PCQNBMHPUiia8l0<;h,0*59
!AIVDM,1,1,,A,H3aIh9TT0000000@4plpn0104310,0*55
$GPRMC,125929.00,A,5144.96385,N,00355.16674,E,2.192,203.72,041015,,,A*63
$GPVTG,203.72,T,,M,2.192,N,4.060,K,A*33
!AIVDM,1,1,,B,13aBMb0P00PBaw:MfcfrJgvr0p:8,0*42
$GPGGA,125929.00,5144.96385,N,00355.16674,E,1,10,1.07,-6.1,M,45.9,M,,*79
$GPGSA,M,3,08,18,32,14,22,11,19,01,27,04,,,2.11,1.07,1.83*0D
!AIVDM,1,1,,A,13btoH?P00P@pwJMR@r@0?vr28A<,0*36
$GPGSV,4,1,13,01,38,270,30,03,06,216,,04,67,274,32,08,76,196,24*76
!AIVDM,1,1,,A,33aD@<OP000Al3lMVo=00?vp02wk,0*4C
!AIVDM,1,1,,A,13aI9mPP00PAkevMVpcu2wvr2<3w,0*47
!AIVDM,1,1,,B,13@aEB6000PA0IlMLr6`0VJh08A@,0*6B
$GPGSV,4,2,13,10,30,147,29,11,50,280,21,14,27,101,35,18,12,050,23*72
!AIVDM,1,1,,B,13aGut0P010C<0pM`0jGU?vrR0SB,0*43
!AIVDO,1,1,,,B39qLF005@4O4IWIirIwGwmUkP06,0*2B
$GPGSV,4,3,13,19,59,294,25,22,47,065,30,27,42,146,35,28,22,319,25*73
$GPGSV,4,4,13,32,38,199,22*40
$GPGLL,5144.96385,N,00355.16674,E,125929.00,A,A*69
!AIVDM,1,1,,A,33aBNJ@01<PC<AtMSr4Kq9Lr0000,0*03
!AIVDM,1,1,,B,B3`hA4P0:P4aG`WIAP:VCwfUoP06,0*0C
!AIVDM,1,1,,B,13aPMsOP00PBh74MT1s00?vr25Sd,0*1E
!AIVDM,1,1,,A,13b2EB00000Csp8MdiIRfR1p0pAQ,0*45
!AIVDM,1,1,,B,133u9tPP00PBauvMfPHRSgvr28AR,0*14
!AIVDM,1,1,,B,13bBTF0P00PBM1FMat8h0?vr2D6K,0*55
!AIVDM,1,1,,A,401uEPAuvR<sM0CNE`MHfjw00L<m,0*1A
$GPRMC,125930.00,A,5144.96327,N,00355.16635,E,2.311,203.11,041015,,,A*6A
!AIVDM,1,1,,B,402E3N1uvR<sMP@jfPMeS4G005Sd,0*0F
$GPVTG,203.11,T,,M,2.311,N,4.280,K,A*33
!AIVDM,1,1,,B,13aDpaPP010BRW6MfBWW=?vpP@Ac,0*0C
!AIVDM,1,1,,B,141jV:?P00PBMo@Mf28P0?vt2@Ad,0*23
$GPGGA,125930.00,5144.96327,N,00355.16635,E,1,10,1.07,-5.9,M,45.9,M,,*77
!AIVDM,1,1,,B,83aKV7Pj2d<vL<<=v@O@I@QP3800,0*08
$GPGSA,M,3,08,18,32,14,22,11,19,01,27,04,,,2.12,1.07,1.83*0E
$GPGSV,4,1,13,01,38,270,30,03,06,216,,04,67,274,32,08,76,196,23*71
!AIVDM,1,1,,B,34`Wco0P@2PBu<<Mfo<eWJpv00vi,0*75
$GPGSV,4,2,13,10,30,147,28,11,50,280,18,14,27,101,34,18,12,050,22*79
!AIVDM,1,1,,A,13`ga7wP000BTAHMfJ0P0?vr0<3<,0*74
$GPGSV,4,3,13,19,59,294,25,22,47,065,30,27,42,146,35,28,22,319,23*75
!AIVDO,1,1,,,B39qLF005h4O4GWIir1vwwn5kP06,0*27
$GPGSV,4,4,13,32,38,199,22*40
$GPGLL,5144.96327,N,00355.16635,E,125930.00,A,A*6C
!AIVDM,1,1,,B,13bIIn100q0@R1vMWatIUonp0@As,0*2E
!AIVDM,1,1,,B,13aAHN000t0CJKRMe:5lpCrv00RE,0*0E
!AIVDM,1,1,,A,19NWv4Quh0P@@@@Mdi;Vwj6r0@Av,0*6A
!AIVDM,1,1,,A,13aGsE@P00PC4s4Meea00?vt25Sd,0*65
!AIVDM,1,1,,B,13`e=c@P00PCLT4McpIDCgvt2HB3,0*2D
!AIVDM,1,1,,A,13aO?qh000PC9M4Mf5fQ=qbp08B4,0*46
!AIVDM,1,1,,B,13c;hP8P000BLWfMauk9o?vv2L6j,0*59
!AIVDM,1,1,,B,13aGv0WP00PCEIrMO0CP0?vt28B8,0*71
$GPRMC,125931.00,A,5144.96273,N,00355.16594,E,2.162,203.12,041015,,,A*66
$GPVTG,203.12,T,,M,2.162,N,4.003,K,A*3F
!AIVDM,1,1,,A,13`e>o0P00PBWn8MfLu:MwvtRHB@,0*0B
!AIVDM,1,1,,B,13aJIU3P00PAvqdMSIOh0?vv25Sd,0*4E
!AIVDM,1,1,,A,139n43PP1bPBFsBMQgV:2OvvR5Sd,0*78
$GPGGA,125931.00,5144.96273,N,00355.16594,E,1,10,1.07,-6.1,M,45.9,M,,*75
!AIVDM,1,1,,B,13b<>600000AtGlMSGL6H8C005Sd,0*4D
$GPGSA,M,3,08,18,32,14,22,11,19,01,27,04,,,2.12,1.07,1.83*0E
$GPGSV,4,1,13,01,38,270,29,03,06,216,,04,67,274,31,08,76,196,20*79
!AIVDM,1,1,,B,13aKV7PP00PBPA@Makb9Sgw028BJ,0*42
$GPGSV,4,2,13,10,30,147,28,11,50,280,16,14,27,101,34,18,12,050,20*75
$GPGSV,4,3,13,19,59,294,25,22,47,065,30,27,42,146,34,28,22,319,22*75
$GPGSV,4,4,13,32,38,199,21*43
!AIVDO,1,1,,,B39qLF005@4O4EWIiqevwwnUkP06,0*3A
$GPGLL,5144.96273,N,00355.16594,E,125931.00,A,A*65
!AIVDM,1,1,,B,13bmr47P00PBN7fMap@@0?vv2<7D,0*2A
!AIVDM,1,1,,B,13al3>0000PAt98MSGTALpQ02HBV,0*3C
!AIVDM,1,1,,B,13bilF7P000BMutMap@`@?vv08Bc,0*75
!AIVDM,1,1,,A,H3`jd8DT0000000@9kmjo01P0310,0*02
!AIVDM,1,1,,B,277VjP5000PCQNBMHPUiia8r0<;h,0*44
!AIVDM,1,1,,A,13auDv?000PC4vPMSwpWapG00<5b,0*7F
$GPRMC,125932.00,A,5144.96216,N,00355.16558,E,2.398,201.58,041015,,,A*6D
$GPVTG,201.58,T,,M,2.398,N,4.442,K,A*35
!AIVDM,1,1,,A,13aKTlP000PBhlPMSRqP03c02<2D,0*55
$GPGGA,125932.00,5144.96216,N,00355.16558,E,1,10,1.07,-5.9,M,45.9,M,,*7E
$GPGSA,M,3,08,18,32,14,22,11,19,01,27,04,,,2.12,1.07,1.83*0E
$GPGSV,4,1,13,01,38,270,28,03,06,216,,04,67,274,31,08,76,196,20*78
$GPGSV,4,2,13,10,30,147,19,11,50,280,16,14,27,101,33,18,12,050,17*74
$GPGSV,4,3,13,19,59,294,25,22,47,065,32,27,42,146,29,28,22,319,20*79
$GPGSV,4,4,13,32,38,199,19*48
!AIVDO,1,1,,,B39qLF005h4O4CWIiqEuwwo5kP06,0*56
!AIVDM,1,1,,B,1770mw002FP?q5hMMpk5042v00S8,0*0C
$GPGLL,5144.96216,N,00355.16558,E,125932.00,A,A*65
!AIVDM,1,1,,B,402E35iuvR<sPPAO`@MVUr7008C9,0*40
!AIVDM,1,1,,B,H3`e<f055D4l58T`p0000000000,2*66
!AIVDM,1,1,,A,339eb`P01nPD3A0MbR0:e`e021wP,0*12
!AIVDM,1,1,,A,H3aKVTQ`Ti@0000000000000000,2*3B
!AIVDM,1,1,,A,H3`oWJTTF5C@5B0@8mooj00p7040,0*74
!AIVDM,1,1,,A,13aQ76w0000BPNVMabeHwiE200S1,0*00
!AIVDM,1,1,,A,14hBQ9021@0ADi@MhuHS32G20HCH,0*42
!AIVDM,1,1,,B,13b0<T70000BMUnMaqa8HFi208CH,0*4C
$GPRMC,125933.00,A,5144.96160,N,00355.16525,E,2.220,200.65,041015,,,A*69
$GPVTG,200.65,T,,M,2.220,N,4.111,K,A*3B
$GPGGA,125933.00,5144.96160,N,00355.16525,E,1,10,1.07,-6.1,M,45.9,M,,*7C
!AIVDM,1,1,,B,13aN3i0P00PC>RNMeh@P0?w228CN,0*1E
$GPGSA,M,3,08,18,32,14,22,11,19,01,27,04,,,2.12,1.07,1.83*0E
!AIVDM,1,1,,A,13aQ6o00000C2a8MSrBaKBg40D36,0*31
$GPGSV,4,1,13,01,38,270,29,03,06,216,,04,67,274,27,08,76,196,19*74
!AIVDM,1,1,,A,13b?AJ7P000BOV0Mahk00?w008CS,0*01
$GPGSV,4,2,13,10,30,147,29,11,50,280,21,14,27,101,30,18,12,050,19*7E
!AIVDM,1,1,,B,E>jN6<0W6@1WPab3bPa2@LtP0000:usB?9TV@00003v010,4*64
$GPGSV,4,3,13,19,59,294,27,22,47,065,33,27,42,146,34,28,22,319,17*72
$GPGSV,4,4,13,32,38,199,20*42
!AIVDO,1,1,,,B39qLF005P4O4B7Iiq1uKwoUkP06,0*27
$GPGLL,5144.96160,N,00355.16525,E,125933.00,A,A*6C
!AIVDM,1,1,,A,13bmVR00000BGgJMflcII5340D6g,0*04
!AIVDM,1,1,,A,141jV:?P00PBMoBMf28h0?w22@Ci,0*52
!AIVDM,1,1,,B,B3`jd8@0804ei3WJM9mjowo5oP06,0*64
!AIVDM,1,1,,A,10H9uCPP00PBGKHMfhqP0?w2R5Sd,0*4E
!AIVDM,1,1,,B,13aGtg?P01PAg@>MVpDCNgw22@Cm,0*28
!AIVDM,1,1,,A,18JwNt0PAI0CHIJMeFAmO4G40DBW,0*53
!AIVDM,1,1,,B,33`hqgPP00PBMcTMf7j:F?w2R2kC,0*6B
!AIVDM,1,1,,B,13aIjp@P02PAfW@MVnM>1ww42HCw,0*2A
!AIVDM,1,1,,A,13aC26hP00PCtcTMdcrC4?w2R0Sh,0*06
!AIVDM,1,1,,B,13aFfAHP01PBGN>MQUP=Hgw42<5l,0*04
$GPRMC,125934.00,A,5144.96097,N,00355.16500,E,2.282,198.66,041015,,,A*69
$GPVTG,198.66,T,,M,2.282,N,4.226,K,A*35
$GPGGA,125934.00,5144.96097,N,00355.16500,E,1,10,1.07,-6.1,M,45.9,M,,*75
!AIVDM,1,1,,A,13Hn?2?P000BhbHMSunP0?vv00S=,0*64
!AIVDM,1,1,,B,13`jddh00VPAefhMVwR36ju400Ro,0*44
!AIVDM,1,1,,A,13aC3D@P000CBk`MeMqh0?w208D7,0*16
!AIVDM,1,1,,B,14Rk1N02ARPCkI`MdL4bNpK60@D7,0*55
$GPGSA,M,3,08,18,32,14,22,11,19,01,27,04,,,2.12,1.07,1.83*0E
$GPGSV,4,1,13,01,38,270,30,03,06,216,,04,67,274,23,08,76,196,23*71
$GPGSV,4,2,13,10,30,147,32,11,50,280,25,14,27,101,34,18,12,050,18*75
$GPGSV,4,3,13,19,59,294,28,22,47,065,30,27,42,146,35,28,22,319,15*7D
!AIVDM,1,1,,B,33aLmWE000PBG0JMfm`l?Rm40000,0*16
!AIVDO,1,1,,,B39qLF005P4O4A7IipUt;wp5kP06,0*4F
$GPGSV,4,4,13,32,38,199,24*46
$GPGLL,5144.96097,N,00355.16500,E,125934.00,A,A*65
!AIVDM,1,1,,A,13`ga7wP000BTAHMfJ0P0?w20<3<,0*35
!AIVDM,1,1,,A,13aDq@@P16PCVsVMdT?4??w42D9l,0*51
!AIVDM,1,1,,B,13aI:K0P02PBhhNMSR=qNgw428DH,0*2C
!AIVDM,1,1,,A,13P7enP000P@NC0Me5OUe2C208DK,0*23
!AIVDM,1,1,,B,133wU1PP00P@wrNMLpGh0?w420S4,0*2B
!AIVDM,1,1,,A,13bB<r7P00PBM<@Masd00?w42<7T,0*24
!AIVDM,1,1,,A,13aD@W7P00PAc5fMR5SFCww42@DM,0*63
!AIVDM,1,1,,B,B39lFGP0:H4`3b7HS3DQ;wi5oP06,0*34
!AIVDM,1,1,,B,33bnAP50030@b>@MW22WlVC60DRb,0*14
$GPRMC,125935.00,A,5144.96036,N,00355.16478,E,2.457,197.15,041015,,,A*68
!AIVDM,1,1,,A,13ku87P01oP@bIbMKj2b08920D3P,0*7A
$GPVTG,197.15,T,,M,2.457,N,4.551,K,A*37
!AIVDM,1,1,,A,13aL?2PP00PAqlbMVNq@0?w62HDW,0*29
!AIVDM,1,1,,B,B3aN2Eh0=84IMH7HlcS3Swi5oP06,0*78
$GPGGA,125935.00,5144.96036,N,00355.16478,E,1,10,1.07,-6.0,M,45.9,M,,*70
$GPGSA,M,3,08,18,32,14,22,11,19,01,27,04,,,2.12,1.07,1.83*0E
$GPGSV,4,1,13,01,38,270,28,03,06,216,,04,67,274,22,08,76,196,25*7F
!AIVDM,1,1,,A,13`rO`?000PBSd0MN0Ce5`E808Df,0*14
!AIVDM,1,1,,B,19NSGK002@0BI?2MKL6L09U608Dh,0*06
$GPGSV,4,2,13,10,30,147,32,11,50,280,31,14,27,101,32,18,12,050,21*7C
!AIVDM,1,1,,A,13aGsl:P00PCT6jMcmAQ?gvhR5Sd,0*29
!AIVDM,2,1,7,B,53bMOT00000105Tn220<E88E9E>222222222220S0PH186PaN4Q1C`3lliH8,0*37
!AIVDM,2,2,7,B,88888888880,2*20
!AIVDO,1,1,,B,B39qLF00604O4?WIip=s?wpUkP06,0*7B
$PAMC,R,TXT,000,TX_PWR,Lv=0,2038,1.642*1E
$GPGSV,4,3,13,19,59,294,28,22,47,065,35,27,42,146,30,28,22,319,13*7B
$GPGSV,4,4,13,32,38,199,23*41
!AIVDM,1,1,,A,B34AuAP08`4cA37I8DQo7wiUoP06,0*72
!AIVDO,1,1,,,B39qLF00604O4?WIip=s?wpUkP06,0*39
$GPGLL,5144.96036,N,00355.16478,E,125935.00,A,A*61
!AIVDM,1,1,,B,14`Vlj00000BtaHMfq:501A208Dp,0*24
!AIVDM,1,1,,A,13aGG70P0sPA=apMTKEr8gw625Sd,0*27
!AIVDM,1,1,,B,13lo@t00000Ba4@Mfm=aR3c20<<D,0*29
!AIVDM,1,1,,A,13aEQLhP18PBQC>MR?=a7?w6R5Sd,0*77
!AIVDM,1,1,,B,13aDCs0P00PBBSjMfmh=`gw2P5Sd,0*38
!AIVDM,1,1,,B,B3aLn5@0@P4`mV7HUeRRgwiUkP06,0*73
$GPRMC,125936.00,A,5144.95982,N,00355.16475,E,2.565,195.34,041015,,,A*62
$GPVTG,195.34,T,,M,2.565,N,4.751,K,A*34
$GPGGA,125936.00,5144.95982,N,00355.16475,E,1,10,1.07,-5.7,M,45.9,M,,*7F
!AIVDM,1,1,,A,13aK`N0P0hP@jlvMOq4lwgw82@E>,0*05
!AIVDM,1,1,,A,13bRKv0000PBbC`MfQO0N:i80D<J,0*58
$GPGSA,M,3,08,18,32,14,22,11,19,01,27,04,,,2.12,1.07,1.83*0E
$GPGSV,4,1,13,01,38,270,26,03,06,216,,04,67,274,21,08,76,196,27*70
$GPGSV,4,2,13,10,30,147,26,11,50,280,30,14,27,101,34,18,12,050,22*7D
!AIVDM,1,1,,B,13esJd00000BQBLMfii`:UI80HEF,0*1C
!AIVDM,1,1,,B,139o;<80000BgW`Mfvm8`CQ:0<<B,0*6E
!AIVDM,1,1,,A,15>jPp0000PB=6LMfmWI5FW:2L4t,0*7B
$GPGSV,4,3,13,19,59,294,29,22,47,065,38,27,42,146,30,28,22,319,18*7C
$GPGSV,4,4,13,32,38,199,22*40
!AIVDM,1,1,,A,17722:001IPCBo4MelVm8l3:05Sd,0*4F
$GPGLL,5144.95982,N,00355.16475,E,125936.00,A,A*6A
!AIVDO,1,1,,,B39qLF006@4O4?WIioqr7wq5kP06,0*72
!AIVDM,1,1,,B,B3a0mp006h4oDiWJ9FD@owj5oP06,0*28
!AIVDM,1,1,,A,3774rs5000PBDkvMfb8@Snll0000,0*62
!AIVDM,1,1,,A,B3`iq=h00@4`aWWJKH8pKwj5kP06,0*50
!AIVDM,1,1,,B,13a:?L00000@pwpMRJhs?q;:0L4v,0*37
$GPRMC,125937.00,A,5144.95914,N,00355.16474,E,2.598,191.16,041015,,,A*6B
$GPVTG,191.16,T,,M,2.598,N,4.812,K,A*3A
$GPGGA,125937.00,5144.95914,N,00355.16474,E,1,10,1.07,-5.3,M,45.9,M,,*74
!AIVDM,1,1,,A,13eP8V00000BPrHMab00545005Sd,0*1F
$GPGSA,M,3,08,18,32,14,22,11,19,01,27,04,,,2.12,1.07,1.83*0E
!AIVDM,1,1,,A,B3aN1aP0884gbf7JDM6hswjUoP06,0*37
$GPGSV,4,1,13,01,38,270,27,03,06,216,,04,67,274,22,08,76,196,28*7D
!AIVDM,1,1,,A,13aIiphP00PBMjNMf4Cv4?w:25Sd,0*0A
$GPGSV,4,2,13,10,30,147,24,11,50,280,28,14,27,101,28,18,12,050,21*78
!AIVDM,1,1,,A,B3ikMd00084InjWHL5emSwjUoP06,0*41
!AIVDM,1,1,,B,13aGF=hP00PBHG6ML04VE?w:2<4G,0*70
!AIVDM,1,1,,B,H3`iq=hhDTh4000000000000000,2*65
$GPGSV,4,3,13,19,59,294,30,22,47,065,37,27,42,146,34,28,22,319,19*7E
$GPGSV,4,4,13,32,38,199,20*42
!AIVDM,1,1,,B,H3`iq=lT0000000@9liql01@5410,0*33
$GPGLL,5144.95914,N,00355.16474,E,125937.00,A,A*65
!AIVDM,1,1,,B,B3`mtt@00H4d5TWI0rgFSwjUoP06,0*3F
!AIVDO,1,1,,,B39qLF006@4O4?WIioMoOwqUkP06,0*4B
!AIVDM,1,1,,B,13aEOR@P000A0HtMRwLqP?w<2<38,0*07
!AIVDM,1,1,,B,277VjP5000PCQNDMHPUiia940<;h,0*05
!AIVDM,1,1,,A,13K2?v10?wP?EL:M`4gf40i205Sd,0*74
!AIVDM,1,1,,A,13aGDV0P00PBO<DMew=3Qgw:RD4n,0*33
!AIVDM,1,1,,A,33B54H001qPAimpMiNj:v`s:00tP,0*49
!AIVDM,1,1,,B,13akL:0000PAtRpMSGSVdpG<08F:,0*5B
!AIVDM,1,1,,B,15DcaV00290ADB`MHbv4R3e60<38,0*3D
!AIVDM,1,1,,B,33aDCrOP00PBOFpMfCk=Oww:R2oS,0*52
!AIVDM,1,1,,A,B3`fKqh0Bh4aE9WI<nU:CwjUkP06,0*25
!AIVDM,1,1,,A,13iCC60ujQ0@PF8Mjj4r2H5<08FC,0*2E
$GPRMC,125938.00,A,5144.95841,N,00355.16477,E,2.657,187.33,041015,,,A*66
!AIVDM,1,1,,A,133u9tPP00PBauvMfPHRSgw:2HFE,0*3E
$GPVTG,187.33,T,,M,2.657,N,4.921,K,A*3B
!AIVDM,1,1,,B,13P7GbW0?wPBOuTMagJN49a:0<2C,0*52
$GPGGA,125938.00,5144.95841,N,00355.16477,E,1,10,1.07,-5.2,M,45.9,M,,*78
$GPGSA,M,3,08,18,32,14,22,11,19,01,27,04,,,2.12,1.07,1.83*0E
!AIVDM,1,1,,A,13`hotPP000BPiNMg@Qh0?w:00Sv,0*06
$GPGSV,4,1,13,01,38,270,27,03,06,216,,04,67,274,21,08,76,196,28*7E
!AIVDM,1,1,,A,13`w<J00000Bi1RMSTTGqCi>0<2O,0*70
!AIVDM,1,1,,B,B343PbP0AP4FokWGs7<ekwjUkP06,0*75
$GPGSV,4,2,13,10,30,147,21,11,50,280,25,14,27,101,25,18,12,050,19*76
$GPGSV,4,3,13,19,59,294,29,22,47,065,36,27,42,146,34,28,22,319,19*77
$GPGSV,4,4,13,32,38,199,20*42
$GPGLL,5144.95841,N,00355.16477,E,125938.00,A,A*68
!AIVDO,1,1,,,B39qLF006P4O4?WIio1m7wr5kP06,0*3E
!AIVDM,1,1,,B,13bDQF7P?w<tSF0l4Q@>4?wv1W3h,0*14
!AIVDM,1,1,,A,34`Wco0000PBu<<Mfo<bU:o>019i,0*08
!AIVDM,1,1,,B,B3`hNAh06`4RRo7HFKT;?wk5oP06,0*34
!AIVDM,1,1,,A,13aI:s@P00PBlvhMfnrP0?w>2D5I,0*1E
!AIVDM,1,1,,B,13aKV90P00PBERvMNepusgw<25Sd,0*7D
!AIVDM,1,1,,A,13aOAT@P00PBNJBMfsvv4?w>RD57,0*55
$GPRMC,125939.00,A,5144.95763,N,00355.16479,E,2.766,186.29,041015,,,A*6F
$GPVTG,186.29,T,,M,2.766,N,5.122,K,A*38
!AIVDM,1,1,,B,13bMOT00000AkwHMVq330ba<00R=,0*3C
!AIVDM,1,1,,A,13@aEB6000PA0IlMLr480VK20D6A,0*63
!AIVDM,1,1,,B,13aDqWPP010BDW<MfaI7tww:P@Fv,0*22
$GPGGA,125939.00,5144.95763,N,00355.16479,E,1,10,1.07,-5.2,M,45.9,M,,*78
!AIVDM,1,1,,B,13aO?qh000PC9M0Mf5fi=qc800SC,0*5E
$GPGSA,M,3,08,18,32,14,22,11,19,01,27,04,,,2.12,1.07,1.83*0E
!AIVDM,1,1,,B,33bi5N5000PBr=HMfFOPVEa@0Dhb,0*7B
$GPGSV,4,1,13,01,38,270,28,03,06,216,,04,67,274,20,08,76,196,29*71
!AIVDM,1,1,,A,13b5sh000RPC6L@Mf:eU:3w<05Sd,0*72
$GPGSV,4,2,13,10,30,147,21,11,50,280,22,14,27,101,24,18,12,050,18*71
$GPGSV,4,3,13,19,59,294,28,22,47,065,36,27,42,146,33,28,22,319,18*70
$GPGSV,4,4,13,32,38,199,19*48
$GPGLL,5144.95763,N,00355.16479,E,125939.00,A,A*68
!AIVDM,1,1,,B,13aD@<OP000Al3lMVo=00?w<0D3w,0*2E
!AIVDO,1,1,,,B39qLF006h4O4?WIinQlKwrUkP06,0*7A
!AIVDM,1,1,,A,13aGuBhP00PCL?RMe><00?w>28G?,0*11
!AIVDM,1,1,,B,33aI9mPP00PAkevMVpcu2ww>2031,0*41
!AIVDM,1,1,,B,H34H:sTUCBD74Mw?Bqinq01@4310,0*2B
!AIVDM,1,1,,B,83aI9mPj2ddteLMth0UP`@O5:0P0,0*53
!AIVDM,1,1,,B,13bGLn?P00PBfI0MT8L6sOw>2<3r,0*23
$GPRMC,125940.00,A,5144.95677,N,00355.16484,E,2.981,183.96,041015,,,A*61
$GPVTG,183.96,T,,M,2.981,N,5.521,K,A*39
!AIVDM,1,1,,A,13aPMsOP00PBh74MT1s00?w>2@GQ,0*04
!AIVDM,1,1,,B,13aBN`hP000BOw`MfEo18gv0P`GQ,0*37
$GPGGA,125940.00,5144.95677,N,00355.16484,E,1,10,1.07,-5.0,M,45.9,M,,*72
!AIVDM,1,1,,A,13aGFB@P00PC;rpM`1M@0?w@25Sd,0*25
$GPGSA,M,3,08,18,32,14,22,11,19,01,27,04,,,2.12,1.07,1.83*0E
$GPGSV,4,1,13,01,38,270,27,03,06,216,,04,67,274,24,08,76,196,28*7B
!AIVDM,1,1,,B,13b2EB00000Csp6MdiHjfR1B0USd,0*41
$GPGSV,4,2,13,10,30,147,29,11,50,280,20,14,27,101,31,18,12,050,15*72
!AIVDM,1,1,,B,B3aB::@0<P4K;S7IhLdl?wl5kP06,0*02
$GPGSV,4,3,13,19,59,294,26,22,47,065,36,27,42,146,33,28,22,319,19*7F
!AIVDM,1,1,,A,B3aL?400<H4aKuWIAG6Pgwl5oP06,0*60
$GPGSV,4,4,13,32,38,199,21*43
!AIVDM,1,1,,A,13aIj>`PA10C6A`MfKbTv41B00Rp,0*39
$GPGLL,5144.95677,N,00355.16484,E,125940.00,A,A*60
!AIVDO,1,1,,,B39qLF007@4O4@7Iimujwws5kP06,0*30
!AIVDM,1,1,,B,13ku8o@3A2P>eCTMW4f51TEB0D6T,0*7B
!AIVDM,2,1,8,A,53eTMt42BHb7TP7C7790TtpDE8TpN1=0U8U@001JASjvv4D<0t4Sm51DQ0C@,0*57
!AIVDM,2,2,8,A,00000000000,2*2C
!AIVDM,1,1,,B,13aEPO@P1PPC6?bMSqgSEOw@RL2K,0*14
!AIVDM,1,1,,A,13aDpaPP010BRW2MfBWW8gw>P@Gr,0*0E
!AIVDM,1,1,,A,13`osT00000CGIpMdH>5qUE>0<<O,0*4B
!AIVDM,1,1,,A,13bilF7P000BMutMap@`@?w@0V5M,0*76
!AIVDM,1,1,,A,13aIjdhP00PCCo<MeJ700?w@20SB,0*77
!AIVDM,1,1,,B,139n43PP1bPBFdlMQgF:3wwBR0Ri,0*57
$GPRMC,125941.00,A,5144.95595,N,00355.16487,E,3.028,182.13,041015,,,A*6B
!AIVDM,2,1,9,A,53aWJ`026DEa09Ln221HhTE=A8ttn2222222220o2p@456O8N4B1C31ESiE4,0*3A
!AIVDM,2,2,9,A,k5BDp888880,2*3D
$GPVTG,182.13,T,,M,3.028,N,5.607,K,A*39
$GPGGA,125941.00,5144.95595,N,00355.16487,E,1,10,1.07,-5.3,M,45.9,M,,*7C
!AIVDM,1,1,,B,B3aPOo@0;H4Rw27IaU2lkwlUoP06,0*6D
!AIVDM,1,1,,A,33aDolw00sPB7CHMQ1To85gB2000,0*16
$GPGSA,M,3,08,18,32,14,22,11,19,01,27,04,,,2.12,1.07,1.83*0E
!AIVDM,1,1,,B,H39pPiPP59HE=B0lttp00000000,2*7E
$GPGSV,4,1,13,01,38,270,25,03,06,216,23,04,67,274,30,08,75,194,28*7C
$GPGSV,4,2,13,10,30,147,31,11,50,280,21,14,27,101,35,18,12,050,19*72
!AIVDM,1,1,,A,19NSGK002@0BI5LMKLbcwISB0D;m,0*49
$GPGSV,4,3,13,19,59,294,23,22,47,065,36,27,42,146,31,28,22,319,21*73
!AIVDM,1,1,,A,13bIIn100s0@QrNMWacqWGo<0<4F,0*23
!AIVDM,1,1,,B,33B54H001qPAig`MiNj:v`s@00qh,0*17
$GPGSV,4,4,13,32,38,199,22*40
!AIVDM,1,1,,B,13boCr?P000BMphMapN@0?wB20S=,0*57
$GPGLL,5144.95595,N,00355.16487,E,125941.00,A,A*6D
!AIVDO,1,1,,,B39qLF007P4O4@7IimMiowsUkP06,0*63
!AIVDM,1,1,,A,B3aI<4@0504Wmb7JMSIDowlUkP06,0*1C
!AIVDM,1,1,,B,H3`u68@du04pt58000000000000,2*1B
!AIVDM,1,1,,A,33`hqw0OhR0As2tMP3to>maD00r@,0*58
!AIVDM,1,1,,A,13aEPl@P00PCo70MdGOU9wwBR@Ha,0*63
$GPRMC,125942.00,A,5144.95509,N,00355.16491,E,3.203,180.36,041015,,,A*64
$GPVTG,180.36,T,,M,3.203,N,5.933,K,A*3F
!AIVDM,1,1,,B,H3aB8hQHD@EA@D0000000000000,2*02
$GPGGA,125942.00,5144.95509,N,00355.16491,E,1,10,1.07,-5.3,M,45.9,M,,*7D
!AIVDM,1,1,,B,33cWtJ50000BS6<MeoLllB;D0000,0*37
$GPGSA,M,3,08,18,32,14,22,11,19,01,27,04,,,2.12,1.07,1.83*0E
!AIVDM,1,1,,A,B3aK`Uh0984TiFWHLhPqgwm5oP06,0*35
!AIVDM,1,1,,A,13aC2O@P000CW9vMdEJ@0?wB0@Hl,0*08
$GPGSV,4,1,13,01,38,270,26,03,06,216,22,04,67,274,30,08,75,194,28*7E
!AIVDM,1,1,,A,13`e=c@P00PCLT4McpIDCgwD20Rd,0*20
$GPGSV,4,2,13,10,30,147,32,11,50,280,22,14,27,101,34,18,12,050,22*7B
!AIVDM,1,1,,A,B3`f;<00=H4Cj77HVhVl?wm5oP06,0*5B
$GPGSV,4,3,13,19,59,294,22,22,47,065,34,27,42,146,29,28,22,319,23*7B
!AIVDM,1,1,,A,B3aB:6P0<@4I3S7Igu0uCwlUkP06,0*60
!AIVDM,1,1,,B,34`Wco0000PBu<<Mfo<sjJqF0000,0*62
$GPGSV,4,4,13,32,38,199,20*42
$GPGLL,5144.95509,N,00355.16491,E,125942.00,A,A*6C
!AIVDM,1,1,,A,402E35iuvR<sbPAO`@MVUr7008I0,0*72
!AIVDO,1,1,,,B39qLF00804O4@WIilqhgwt5kP06,0*3F
!AIVDM,1,1,,B,H3`u68DU0000000@6pihq00`5220,0*77
!AIVDM,1,1,,B,3815C4U0000DB5nMdlkdsigF0DOr,0*6D
!AIVDM,1,1,,B,B3`u68@0004cQQ7I2TUhkwm5kP06,0*34
$GPRMC,125943.00,A,5144.95419,N,00355.16492,E,3.287,178.63,041015,,,A*6D
!AIVDM,1,1,,B,13aDC77P000BOv2MaiFP0?wF0<3q,0*4B
$GPVTG,178.63,T,,M,3.287,N,6.087,K,A*31
$GPGGA,125943.00,5144.95419,N,00355.16492,E,1,09,1.20,-5.5,M,45.9,M,,*74
$GPGSA,M,3,08,18,32,14,22,11,19,01,04,,,,2.19,1.20,1.83*05
!AIVDM,1,1,,A,13aGrLPP01PBPAvMadWN4?wF2@IH,0*50
$GPGSV,4,1,13,01,38,270,27,03,06,216,21,04,67,274,30,08,75,194,27*73
!AIVDM,1,1,,B,E>jN6<0W6@1WPab3bPa2@LtP0000:usB?9TV@00003v010,4*64
$GPGSV,4,2,13,10,29,147,32,11,50,280,26,14,27,101,29,18,12,050,22*7B
$GPGSV,4,3,13,19,59,294,23,22,47,065,32,27,42,146,,28,22,319,23*77
$GPGSV,4,4,13,32,38,199,18*49
$GPGLL,5144.95419,N,00355.16492,E,125943.00,A,A*6E
!AIVDM,1,1,,A,13b0<T70000BMV0MaqbHHFiH05Sd,0*2A
!AIVDM,1,1,,A,13QcV`0rhm0>q`4MVJF6bDgH0<<P,0*04
!AIVDM,1,1,,A,13aGtg?P01PAg@FMVpEC1wwF28IT,0*02
!AIVDO,1,1,,,B39qLF00804O4@WIilEgcwtUkP06,0*60
!AIVDM,1,1,,A,13aO@G@P0LPBNFrMf7euBgwF2<3w,0*5B
!AIVDM,1,1,,B,13bmVR00000BGgFMflc8qm5H00Sg,0*71
!AIVDM,1,1,,A,33aFfAHP01PBGN@MQUQMW?wH22i1,0*3E
!AIVDM,1,1,,B,13bB<r7P00PBM<DMasch0?wF2L7T,0*7E
!AIVDM,1,1,,B,13aQ76w0000BPNbMabe9CQEF08Ic,0*7E
!AIVDM,1,1,,A,14`Vlj00000BtaHMfq:501AB0@Id,0*36
!AIVDM,1,1,,A,18KMt:001<0Clr`McRI=?baF00S?,0*79
!AIVDM,1,1,,B,277VjP5000PCQNJMHPUAia9B0<;h,0*55
!AIVDM,1,1,,A,13`hqgPP00PBMcTMf7j:F?wFR0RS,0*35
!AIVDM,1,1,,B,13b?AJ7P000BOV0Mahk00?wH08In,0*4D
$GPRMC,125944.00,A,5144.95319,N,00355.16508,E,3.546,176.36,041015,,,A*6B
$GPVTG,176.36,T,,M,3.546,N,6.567,K,A*3E
!AIVDM,1,1,,B,13Hn?2?P000BhbHMSunP0?wB0HIr,0*7F
$GPGGA,125944.00,5144.95319,N,00355.16508,E,1,10,1.20,-5.6,M,45.9,M,,*7D
!AIVDM,1,1,,A,33B54H001qPAiaHMiNj:v`qF013@,0*55
$GPGSA,M,3,08,18,32,14,22,11,19,01,27,04,,,2.19,1.20,1.83*00
$GPGSV,4,1,13,01,38,270,27,03,06,216,18,04,67,274,29,08,75,194,25*73
!AIVDM,1,1,,A,133taT0Oi0P@g2PMfTI30R?J05Sd,0*45
!AIVDM,1,1,,A,377Scc50000A1D@MLAIbVAmJ0000,0*5C
$GPGSV,4,2,13,10,29,147,32,11,51,280,28,14,27,101,30,18,12,050,22*7C
!AIVDM,1,1,,A,13arll00000BT7FMMt;I?UqJ08J4,0*41
$GPGSV,4,3,13,19,59,294,25,22,47,065,31,27,42,146,26,28,22,319,23*76
!AIVDM,1,1,,B,13aBN9hP000BLR>MfCn00?wF0HJ6,0*15
$GPGSV,4,4,13,32,38,199,22*40
!AIVDM,1,1,,B,13P7enP000P@NC0Me5OUe2CF0<35,0*59
$GPGLL,5144.95319,N,00355.16508,E,125944.00,A,A*6C
!AIVDM,1,1,,A,13aI9AhP00PBhgtMSvU9tOwJR0Sm,0*7B
!AIVDO,1,1,,,B39qLF008h4O4A7Iikef?wu5kP06,0*42
!AIVDM,1,1,,B,13aEQ8PP00PBOp:MaiRh0?wH2HJ=,0*3F
!AIVDM,1,1,,A,B3aEP=h06H4ccQ7I2JQ?Swn5oP06,0*73
!AIVDM,1,1,,B,10H9uCPP00PBGKPMfhq00?wHRHJ>,0*71
!AIVDM,1,1,,A,13aIjp@P01PAfW:MVnMMcgwH25Sd,0*63
!AIVDM,1,1,,B,13aL?2PP00PAql`MVNqh0?wH2HJB,0*65
!AIVDM,1,1,,A,33`oob0PA40@`58MVj;BOigJ00jP,0*15
!AIVDM,1,1,,A,13aBLohP00PBbM8MfTPlH?wJ0D73,0*60
!AIVDM,1,1,,B,13aEQLhP19PBQ;rMR>iq6gwHR5Sd,0*23
$GPRMC,125945.00,A,5144.95216,N,00355.16529,E,3.751,176.12,041015,,,A*65
!AIVDM,1,1,,A,139o;<80000BgWVMfvm8`CQJ0<<D,0*2D
$GPVTG,176.12,T,,M,3.751,N,6.946,K,A*33
$GPGGA,125945.00,5144.95216,N,00355.16529,E,1,10,1.07,-5.3,M,45.9,M,,*71
!AIVDM,1,1,,B,133smTPP00PCTgJMcpT1KgwHRD7s,0*4E
$GPGSA,M,3,08,18,32,14,22,11,19,01,27,04,,,2.12,1.07,1.83*0E
$GPGSV,4,1,13,01,38,270,25,03,06,216,14,04,67,274,28,08,75,194,23*7A
!AIVDM,1,1,,A,141jV:?P00PBMo<Mf28@0?wJ20SB,0*37
$GPGSV,4,2,13,10,29,147,31,11,51,280,28,14,27,101,31,18,12,050,19*76
!AIVDM,1,1,,A,B39pPiP0;`4W2lWIEr=DownUoP06,0*6B
$GPGSV,4,3,13,19,59,294,26,22,47,065,35,27,42,146,24,28,22,319,19*7A
!AIVDM,1,1,,A,13aGtN@P00PCjh`McLPP0?wJ28Jb,0*2B
$GPGSV,4,4,13,32,38,199,24*46
!AIVDM,1,1,,B,13aJH1@P00PCg=bMcVQh0?wJ28Jd,0*19
!AIVDM,1,1,,B,141fwd?P11PBUC<MevdjQ?wJR0Rr,0*72
$GPGLL,5144.95216,N,00355.16529,E,125945.00,A,A*60
!AIVDM,1,1,,A,23aL>MhP1UPD4t>MTLu`A?wJ20S8,0*25
!AIVDM,1,1,,A,333objhP00PBqMFMff;mWOw0R:uC,0*38
!AIVDM,1,1,,A,13aJIs?P00PCfo6Md6>@0?wJ2<7n,0*72
!AIVDO,1,1,,,B39qLF009@4O4B7Iik5f7wuUkP06,0*50
!AIVDM,1,1,,B,13aD@W7P00PAc5fMR5SGwwwJ2@Jo,0*07
!AIVDM,1,1,,B,B3aN`k008h4NrT7If>q3CwnUCP06,0*02
!AIVDM,1,1,,B,33`oob0PA30@`5pMVj=RNAeL0130,0*5A
$GPRMC,125946.00,A,5144.95117,N,00355.16552,E,3.641,175.15,041015,,,A*6C
!AIVDM,2,1,0,A,53aIjpD00003W3C?KKA@PDv0000000000000000N3@415t0Ht0Q3lQ4Q@j50,0*7D
!AIVDM,2,2,0,A,00000000000,2*24
$GPVTG,175.15,T,,M,3.641,N,6.743,K,A*3C
$GPGGA,125946.00,5144.95117,N,00355.16552,E,1,10,1.07,-5.2,M,45.9,M,,*7D
!AIVDM,1,1,,A,13aC2D8P00PBOKnMefFpkOwJ25Sd,0*31
!AIVDM,1,1,,B,13aL>lwP00PC;djMWw=P0?wL20S?,0*03
!AIVDM,1,1,,A,33:=eR50000BVEtMfKj1Q7wLP000,0*00
!AIVDM,1,1,,B,13aIiphP00PBMjfMf4BN4?wL2@K7,0*50
$GPGSA,M,3,08,18,32,14,22,11,19,01,27,04,,,2.12,1.07,1.83*0E
!AIVDM,1,1,,A,13a:?L00000@pwpMRJj;?q;N0@K9,0*36
$GPGSV,4,1,13,01,38,270,22,03,06,216,16,04,67,274,26,08,75,194,24*76
$GPGSV,4,2,13,10,29,147,30,11,51,280,28,14,27,101,31,18,12,050,18*76
!AIVDM,1,1,,B,13aBNa`P000BSeTMfIfh0?wJP5Sd,0*07
$GPGSV,4,3,13,19,59,294,26,22,47,065,35,27,42,146,23,28,22,319,18*7C
$GPGSV,4,4,13,32,38,199,23*41
$GPGLL,5144.95117,N,00355.16552,E,125946.00,A,A*6D
!AIVDM,1,1,,A,13aDCs0P00PBBSjMfmiM`gwFP5Sd,0*3E
!AIVDO,1,1,,,B39qLF00904O4CWIijMeOwP5kP06,0*06
!AIVDM,1,1,,A,33c6wl0PB20@w;8MIotV04eJ00v@,0*28
!AIVDM,1,1,,B,33:ICf10010?HF>MaFAMkQ5N0DgJ,0*32
!AIVDM,1,1,,A,13baM<002:0AUJHMi9tD?k?L2@KS,0*18
!AIVDM,1,1,,B,33aGG70P0mPA=QHMTK@rN?wN2@2C,0*50
$GPRMC,125947.00,A,5144.95027,N,00355.16583,E,3.463,174.30,041015,,,A*67
!AIVDM,1,1,,A,13P7GbW0?wPBOuTMagJN49cJ0<2C,0*23
!AIVDM,1,1,,B,B3`mtE00084c9GWIINwQ3wo5oP06,0*51
$GPVTG,174.30,T,,M,3.463,N,6.414,K,A*39
$GPGGA,125947.00,5144.95027,N,00355.16583,E,1,10,1.07,-5.3,M,45.9,M,,*73
$GPGSA,M,3,08,18,32,14,22,11,19,01,27,04,,,2.12,1.07,1.83*0E
$GPGSV,4,1,13,01,38,270,19,03,06,216,17,04,67,274,26,08,75,194,26*7D
$GPGSV,4,2,13,10,29,147,30,11,51,280,26,14,27,100,31,18,12,050,17*76
!AIVDM,1,1,,B,13eP8V00000BPrHMab00545D08Kk,0*72
$GPGSV,4,3,13,19,59,294,27,22,47,065,37,27,42,146,22,28,22,319,19*7F
!AIVDM,1,1,,B,13aFh;PP00PBOe:Mg79h0?wN2HKm,0*77
!AIVDM,1,1,,B,14`WOh00000Bta4Mfq`=NQ=J08Kn,0*21
$GPGSV,4,4,13,32,38,199,23*41
$GPGLL,5144.95027,N,00355.16583,E,125947.00,A,A*62
!AIVDM,1,1,,B,19NSGK002A0BHstMKM>t0aSN0HKu,0*79
!AIVDM,1,1,,A,13esJd00000BQAlMfina6UIN00S4,0*5C
!AIVDM,1,1,,B,13aGsi0P15PCjDlMd;DF?OwNRL:v,0*25
!AIVDO,1,1,,,B39qLF008P4O4E7IiiqdwwPUkP06,0*67
!AIVDM,1,1,,A,B3aI;EP0?@4hoCWJ:hi83woUkP06,0*33
!AIVDM,1,1,,B,H39nWu4TC=D5b:I48pkik01P1310,0*12
!AIVDM,1,1,,B,13aEOhOP00PBLS`Mfq>SiOwNRL3w,0*24
!AIVDM,1,1,,A,13aEOR@P000A0I0MRwLqQwwP2@L9,0*66
$GPRMC,125948.00,A,5144.94946,N,00355.16614,E,3.332,173.86,041015,,,A*63
$GPVTG,173.86,T,,M,3.332,N,6.171,K,A*36
$GPGGA,125948.00,5144.94946,N,00355.16614,E,1,10,1.07,-5.0,M,45.9,M,,*7D
!AIVDM,1,1,,A,13bMOT00000AkwHMVq3;p:aN0D11,0*46
!AIVDM,1,1,,A,333fKJ00000CdnjMdCh6uSwR02lA,0*79
$GPGSA,M,3,08,18,32,14,22,11,19,01,27,04,,,2.12,1.07,1.83*0E
$GPGSV,4,1,13,01,38,270,17,03,06,216,19,04,67,274,27,08,75,194,26*7C
$GPGSV,4,2,13,10,29,147,28,11,51,280,23,14,27,100,31,18,12,050,15*78
!AIVDM,1,1,,A,13aI99UP1:PCr2vMSlAS4?wPR5Sd,0*3B
$GPGSV,4,3,13,19,59,294,27,22,47,065,38,27,42,146,23,28,22,319,22*79
$GPGSV,4,4,13,32,38,199,22*40
$GPGLL,5144.94946,N,00355.16614,E,125948.00,A,A*6F
!AIVDM,1,1,,A,13aDrF@P00PBgFbMfK3;7OwBRHLR,0*55
!AIVDO,1,1,,,B39qLF008@4O4FWIiiIdcwQ5kP06,0*59
!AIVDM,1,1,,A,13bDQF7P?w<tSF0l4Q@>4?wv1d5u,0*3F
!AIVDM,1,1,,B,3770DI1vh0P?qmTMdFA5D1IL0000,0*78
!AIVDM,1,1,,A,B3aJH100>84O@9WIpB5cKwp5oP06,0*3B
$GPRMC,125949.00,A,5144.94857,N,00355.16653,E,3.283,171.59,041015,,,A*6B
!AIVDM,1,1,,B,13c;hP8P000BLWfMaukIswwR2<6l,0*2E
$GPVTG,171.59,T,,M,3.283,N,6.081,K,A*33
!AIVDM,1,1,,A,15DcaV00290ADUHMHbA4R3eN05Sd,0*7B
$GPGGA,125949.00,5144.94857,N,00355.16653,E,1,10,1.07,-4.7,M,45.9,M,,*78
$GPGSA,M,3,08,18,32,14,22,11,19,01,27,04,,,2.12,1.07,1.83*0E
$GPGSV,4,1,13,01,38,270,17,03,06,216,18,04,67,274,26,08,75,194,25*7F
!AIVDM,1,1,,B,13aPMsOP00PBh74MT1s00?wP20SS,0*0F
$GPGSV,4,2,13,10,29,147,29,11,51,280,22,14,27,100,30,18,12,050,14*78
!AIVDM,1,1,,A,13btoH?P00P@pwNMR@sP0?wR28M0,0*02
!AIVDM,1,1,,B,13Kudb00000BN6RMffUbdBUT0D7p,0*29
!AIVDM,1,1,,A,14`VS=00000BtdPMfpi57QCN0@M1,0*29
$GPGSV,4,3,13,19,59,294,27,22,47,065,37,27,42,146,25,28,22,319,21*73
$GPGSV,4,4,13,32,38,199,22*40
!AIVDM,1,1,,A,13aI9mPP00PAkevMVpcu2wwR25Sd,0*1C
$GPGLL,5144.94857,N,00355.16653,E,125949.00,A,A*6C
!AIVDM,1,1,,A,83aIjp@j2P00000000UPK@T53h00,0*63
!AIVDM,1,1,,A,33aBNJ@01<PC<0@MSs0craQR0000,0*0D
!AIVDM,1,1,,A,33aD@<OP000Al3lMVo=00?wP004A,0*06
!AIVDO,1,1,,,B39qLF00804O4HWIihmc?wQUkP06,0*39
!AIVDM,1,1,,A,13aEQ70P0lPC3hLMSpvbcOwR20SW,0*2B
$GPRMC,125950.00,A,5144.94765,N,00355.16669,E,3.410,172.22,041015,,,A*67
!AIVDM,1,1,,A,13aEPO@P1MPC6KLMSqkkE?wTR8MG,0*07
$GPVTG,172.22,T,,M,3.410,N,6.316,K,A*3D
!AIVDM,1,1,,A,83aD@<@j2P00000000lPj@Wm4d00,0*40
$GPGGA,125950.00,5144.94765,N,00355.16669,E,1,10,1.07,-4.6,M,45.9,M,,*76
!AIVDM,1,1,,B,13aDpaPP010BRW2MfBWW:OwPPL6b,0*24
!AIVDM,1,1,,A,33auDv?000PC4vPMSwpae8GV068k,0*6F
$GPGSA,M,3,08,18,32,14,22,11,19,01,27,04,,,2.12,1.07,1.83*0E
$GPGSV,4,1,13,01,38,270,16,03,06,216,19,04,67,274,26,08,75,194,26*7C
$GPGSV,4,2,13,10,29,147,28,11,51,280,21,14,27,100,30,18,12,050,12*7C
!AIVDM,1,1,,B,139EKv0P000BPL0MaWbcrgwV0L8;,0*69
$GPGSV,4,3,13,19,59,294,27,22,47,065,37,27,42,146,23,28,22,319,21*75
$GPGSV,4,4,13,32,38,199,21*43
!AIVDM,1,1,,B,B3aOATP0004`id7JKfD2Wwq5kP06,0*29
$GPGLL,5144.94765,N,00355.16669,E,125950.00,A,A*63
!AIVDM,1,1,,A,33aGuIOP@0PAO3pMTdoeL`?T21uP,0*58
!AIVDM,1,1,,B,13aIj>`0110C6I8MfKATt43V05Sd,0*5D
!AIVDM,1,1,,A,B3`u6W00084edfWJLTG0gwq5oP06,0*67
!AIVDO,1,1,,,B39qLF008P4O4I7IihAccwR5kP06,0*2B
!AIVDM,1,1,,B,13`e=c@P00PCLT4McpIDCgwT20So,0*39
!AIVDM,1,1,,B,13aN4P@P00PCHmhMdQT00?wTR8Ml,0*59
!AIVDM,1,1,,A,33B54H001qPAiP0MiO;;18qT0000,0*32
!AIVDM,1,1,,B,13b<>600000AtGlMSGLLwHCV0@Mr,0*63
$GPRMC,125951.00,A,5144.94668,N,00355.16697,E,3.592,172.88,041015,,,A*60
!AIVDM,1,1,,A,13aC2I@P00PBt=DMawAQRwwTR8Mu,0*6D
$GPVTG,172.88,T,,M,3.592,N,6.653,K,A*32
!AIVDM,1,1,,B,13aIjdhP00PCCo@MeJ700?wV25Sd,0*3D
$GPGGA,125951.00,5144.94668,N,00355.16697,E,1,10,1.07,-4.6,M,45.9,M,,*7A
$GPGSA,M,3,08,18,32,14,22,11,19,01,27,04,,,2.12,1.07,1.83*0E
!AIVDM,1,1,,A,13boCr?P000BMphMapN@0?wT20SD,0*3B
$GPGSV,4,1,13,01,38,270,16,03,06,216,19,04,67,274,26,08,75,194,26*7C
$GPGSV,4,2,13,10,29,147,29,11,51,280,21,14,27,100,31,18,12,050,16*78
!AIVDM,1,1,,B,13aGDPPP0ePCl96MdGj2t?wV28N9,0*11
$GPGSV,4,3,13,19,59,294,27,22,47,065,37,27,42,146,24,28,22,319,21*72
$GPGSV,4,4,13,32,38,199,23*41
$GPGLL,5144.94668,N,00355.16697,E,125951.00,A,A*6F
!AIVDM,1,1,,B,13aKV7PP00PBPA>MakaqWgw`20SB,0*32
!AIVDM,1,1,,B,13aENTPP000BWnTMfLk`ewwV2<6W,0*36
!AIVDM,1,1,,A,19NWv4Q0@0P@@@@Mdi;Vwj7T0D3w,0*57
!AIVDM,1,1,,B,H39pPiTT>F34R2I4:;@j00106140,0*65
!AIVDO,1,1,,,B39qLF008h4O4JWIigad3wRUkP06,0*68
!AIVDM,1,1,,A,B3`e<k@0=h4bO17I8`uGSwqUkP06,0*21
!AIVDM,1,1,,B,B3bbWf@0984S3?WIahNrcwqUoP06,0*5D
!AIVDM,1,1,,A,13aDBhgP00PBQ76Mfp?2RgwVR8NL,0*74
!AIVDM,1,1,,B,13aDon0P00PCg;DMcVR9=wwVR0Sf,0*47
$GPRMC,125952.00,A,5144.94571,N,00355.16733,E,3.656,174.15,041015,,,A*6E
$GPVTG,174.15,T,,M,3.656,N,6.770,K,A*3B
!AIVDM,1,1,,A,18UbMp30000CWrJMdHi9PJc`05Sd,0*20
$GPGGA,125952.00,5144.94571,N,00355.16733,E,1,10,1.07,-4.3,M,45.9,M,,*78
!AIVDM,1,1,,B,13bIIn100s0@QjnMWaKI`WqP00RJ,0*3B
$GPGSA,M,3,08,18,32,14,22,11,19,01,27,04,,,2.12,1.07,1.83*0E
$GPGSV,4,1,13,01,38,270,16,03,06,216,18,04,67,274,27,08,75,194,27*7D
$GPGSV,4,2,13,10,29,147,28,11,51,280,20,14,27,100,31,18,12,050,16*78
!AIVDM,1,1,,B,13aLrh7P00PBLpvMatFh0?w`2<4`,0*1B
!AIVDM,1,1,,B,13b0<T70000BMV:MaqcHHFkb00S;,0*50
$GPGSV,4,3,13,19,59,294,28,22,47,065,37,27,42,146,25,28,22,319,21*7C
$GPGSV,4,4,13,32,38,199,23*41
!AIVDM,1,1,,A,B3`ekw@08@4QBo7IcnAckwr5kP06,0*39
$GPGLL,5144.94571,N,00355.16733,E,125952.00,A,A*68
!AIVDM,1,1,,A,19NSGK002A0BHkTMKMecv9S`0HNl,0*22
!AIVDM,1,1,,B,402E35iuvR<slPAO`@MVUr7008No,0*27
!AIVDM,1,1,,A,13aQ76w0000BPNfMabdqvAG`0<85,0*12
!AIVDM,1,1,,B,B3aB;6P0;p4jm`WJ7>o4;wr5oP06,0*7F
!AIVDM,1,1,,A,13aKTlP000PBhlVMSRq@03c`2D2E,0*6A
!AIVDM,1,1,,A,13eP<P0001PBQV:Mfj08oUMT05Sd,0*0B
!AIVDO,1,1,,,B39qLF00904O4LWIig5dowS5kP06,0*5E
!AIVDM,1,1,,B,33`hqgPP00PBMcTMf7j:F?w`R03i,0*49
$GPRMC,125953.00,A,5144.94475,N,00355.16746,E,3.617,176.10,041015,,,A*6A
$GPVTG,176.10,T,,M,3.617,N,6.699,K,A*3F
!AIVDM,1,1,,A,13Hn?2?P000BhbHMSunP0?wT0HO:,0*24
$GPGGA,125953.00,5144.94475,N,00355.16746,E,1,10,1.07,-4.7,M,45.9,M,,*7A
!AIVDM,1,1,,B,33`oob0P@v0@`;2MVjL2Hiad016h,0*1C
$GPGSA,M,3,08,18,32,14,22,11,19,01,27,04,,,2.12,1.07,1.83*0E
!AIVDM,1,1,,B,33aI:K0P01PBhh`MSR>rOOw`22s3,0*38
$GPGSV,4,1,13,01,38,270,19,03,06,216,16,04,67,274,28,08,75,194,26*72
$GPGSV,4,2,13,10,29,147,27,11,51,280,18,14,27,100,32,18,12,050,16*7F
$GPGSV,4,3,13,19,59,294,28,22,47,065,37,27,42,146,27,28,22,319,20*7F
!AIVDM,1,1,,B,13aGtg?P01PAg@VMVpEjawwb25Sd,0*6B
$GPGSV,4,4,13,32,38,199,21*43
!AIVDM,1,1,,A,H3aGuRQ04q@4p4h000000000000,2*22
$GPGLL,5144.94475,N,00355.16746,E,125953.00,A,A*6E
!AIVDM,1,1,,A,13aGse0P00PBMvpMf1JR;wvHPUS`,0*6B
!AIVDM,1,1,,A,13b?AJ7P000BOV0Mahk00?w`0D<P,0*51
!AIVDM,1,1,,A,13bB<r7P00PBM<BMase@0?wb25Sd,0*5C
!AIVDO,1,1,,,B39qLF00904O4M7IifMf7wSUkP06,0*7C
!AIVDM,1,1,,B,13aO@G@P0JPBNEVMf80uA?wb28OT,0*07
!AIVDM,1,1,,B,33aGuIOP@0PAO3vMTdouIp?d20vP,0*6A
!AIVDM,1,1,,A,13aEQ8PP00PBOpBMaiR@0?wd25Sd,0*7D
!AIVDM,1,1,,A,B3P<=g@0804W`P7IDHjvGwrUoP06,0*0A
!AIVDM,1,1,,A,13P7enP000P@NC0Me5OUe2Cb00S9,0*1E
$GPRMC,125954.00,A,5144.94380,N,00355.16771,E,3.519,176.13,041015,,,A*6A
$GPVTG,176.13,T,,M,3.519,N,6.517,K,A*34
!AIVDM,1,1,,A,181:KO001a0Anb4MgqgS52Gb00T0,0*10
$GPGGA,125954.00,5144.94380,N,00355.16771,E,1,10,1.07,-4.6,M,45.9,M,,*75
!AIVDM,1,1,,B,13aDon@P1QPCARRMRVSBCgwb28Om,0*60
$GPGSA,M,3,08,18,32,14,22,11,19,01,27,04,,,2.12,1.07,1.83*0E
$GPGSV,4,1,13,01,38,270,20,03,06,216,14,04,67,274,29,08,75,194,26*7B
$GPGSV,4,2,13,10,29,147,26,11,51,280,16,14,27,100,33,18,12,050,16*71
!AIVDM,1,1,,B,13aIjp@P01PAfVvMVnNeQ?wd2HOt,0*31
!AIVDM,1,1,,A,13aGruhP00PBFNbMfgMv4?wd25Sd,0*1A
!AIVDM,1,1,,B,13aFfAHP01PBGN>MQURMg?wf2HOu,0*44
$GPGSV,4,3,13,19,59,294,28,22,47,065,37,27,42,146,27,28,22,319,19*75
$GPGSV,4,4,13,32,38,199,19*48
!AIVDM,1,1,,B,13aC4CPP@0PBMUPMf@k4;TwbP5Sd,0*44
$GPGLL,5144.94380,N,00355.16771,E,125954.00,A,A*60
!AIVDM,1,1,,A,141fwd?P13PBUJnMevw2QOwdR0Sa,0*2F
!AIVDM,1,1,,A,13aL>lwP00PC;dnMWw=00?wd25Sd,0*12
!AIVDO,1,1,,,B39qLF008h4O4NWIieqf7wT5kP06,0*1E
!AIVDM,1,1,,B,14`Vlj00000BtaHMfq:501Ab05Sd,0*7A
!AIVDM,1,1,,A,83`hrChj2ddtfLtM`2`i;?cm6@P0,0*04
!AIVDM,1,1,,B,B3aLnK@0@p4T2O7Gplo>owUUoP06,0*1D
$GPRMC,125955.00,A,5144.94284,N,00355.16790,E,3.541,177.34,041015,,,A*68
!AIVDM,1,1,,A,35Q3ET5P000A1<LMM2K0lgwf0DLb,0*0F
$GPVTG,177.34,T,,M,3.541,N,6.557,K,A*39
!AIVDM,1,1,,B,139o;<80000BgWVMfvm8`CQf00SA,0*64
$GPGGA,125955.00,5144.94284,N,00355.16790,E,1,10,1.07,-4.7,M,45.9,M,,*7F
$GPGSA,M,3,08,18,32,14,22,11,19,01,27,04,,,2.12,1.07,1.83*0E
!AIVDM,1,1,,B,B3aN1H@0@@4T>WWGoJo4sws5kP06,0*6A
$GPGSV,4,1,13,01,38,270,23,03,06,216,11,04,67,274,29,08,75,194,26*7D
$GPGSV,4,2,13,10,29,147,25,11,51,280,19,14,27,100,32,18,12,050,16*7C
$GPGSV,4,3,13,19,59,294,28,22,47,065,36,27,42,146,29,28,22,319,19*7A
$GPGSV,4,4,13,32,38,199,16*47
$GPGLL,5144.94284,N,00355.16790,E,125955.00,A,A*6B
!AIVDM,1,1,,A,13aL?2PP00PAqlNMVNqP0?wf28Pa,0*17
!AIVDM,1,1,,A,13aGG70P0gPA=K6MTKAbc?wf25Sd,0*18
!AIVDO,1,1,,,B39qLF008h4O4OWIieAfowTUkP06,0*17
!AIVDM,1,1,,A,B3`oWs00=h4Q607Ic:@ucwsUoP06,0*53
!AIVDM,1,1,,A,13bRKv0000PBbC`MfQO0N:if08Pl,0*30
$GPRMC,125956.00,A,5144.94191,N,00355.16806,E,3.402,177.21,041015,,,A*6E
$GPVTG,177.21,T,,M,3.402,N,6.300,K,A*3F
$GPGGA,125956.00,5144.94191,N,00355.16806,E,1,10,1.07,-4.8,M,45.9,M,,*74
$GPGSA,M,3,08,18,32,14,22,11,19,01,27,04,,,2.12,1.07,1.83*0E
!AIVDM,1,1,,A,133p<J3PAu0@vH<MJ0fnf5Cb0@Q0,0*68
$GPGSV,4,1,13,01,38,270,26,03,06,216,13,04,67,274,30,08,75,194,26*72
$GPGSV,4,2,13,10,29,147,23,11,51,280,23,14,27,100,32,18,12,050,17*72
$GPGSV,4,3,13,19,59,294,28,22,47,065,36,27,42,146,29,28,22,319,18*7B
!AIVDM,1,1,,B,33aC2D8P00PBOKnMefFpkOwh22nQ,0*1D
$GPGSV,4,4,13,32,38,199,16*47
!AIVDM,1,1,,A,33K:048P@NPC5wtMf=`5GVaf00u1,0*01
$GPGLL,5144.94191,N,00355.16806,E,125956.00,A,A*6F
!AIVDM,1,1,,B,13aC4bOP000BRoFMfHQHSwwj20RL,0*1A
!AIVDM,1,1,,A,19NWv>P01L0CfuVMdJkD0k7d0D72,0*61
!AIVDM,1,1,,A,17722:02AHPCC:<MekGm3T5j0@Q?,0*3F
!AIVDM,1,1,,B,13a:?L00000@pwpMRJjK?q;j0<4u,0*2E
!AIVDM,1,1,,B,13aJIhPP00PBMGtMf:J;3wwh20Rv,0*5C
!AIVDO,1,1,,,B39qLF008P4O4P7IidefkwU5kP06,0*10
$GPRMC,125957.00,A,5144.94097,N,00355.16819,E,3.367,176.95,041015,,,A*6C
!AIVDM,1,1,,A,13`rO`?000PBSd2MN0Cu5`Ej00RQ,0*7D
!AIVDM,1,1,,B,13aEOR@P000A0I2MRwM9Tgwj20Sq,0*26
$GPVTG,176.95,T,,M,3.367,N,6.235,K,A*32
!AIVDM,1,1,,A,B3aLkC008P4QlrWHALKLkwtUCP06,0*7C
!AIVDM,1,1,,B,13P7GbW0?wPBOuTMagJf49cf0HQO,0*3F
$GPGGA,125957.00,5144.94097,N,00355.16819,E,1,10,1.07,-5.1,M,45.9,M,,*74
$GPGSA,M,3,08,18,32,14,22,11,19,01,27,04,,,2.12,1.07,1.83*0E
!AIVDM,1,1,,A,14acLv0000P@cQDMN9AiTIul0hQV,0*34
$GPGSV,4,1,13,01,38,270,26,03,06,216,15,04,67,274,30,08,75,194,26*74
$GPGSV,4,2,13,10,29,147,19,11,51,280,25,14,27,100,31,18,12,050,16*7F
$GPGSV,4,3,13,19,59,294,27,22,47,065,34,27,42,146,29,28,22,319,19*77
!AIVDM,1,1,,A,B3`ekTh0=P4MT@WHgGdLswtUoP06,0*3E
$GPGSV,4,4,13,32,38,199,17*46
$GPGLL,5144.94097,N,00355.16819,E,125957.00,A,A*67
!AIVDM,1,1,,A,13aGDV0P00PBO<PMew?CJwwhR8Qh,0*13
!AIVDM,1,1,,B,B3aGu4h0<h4c6=7HWlm6CwtUoP06,0*50
!AIVDM,1,1,,A,13K2?v10?wP?ELDM`4gf40gb00Rf,0*52
!AIVDM,1,1,,B,13aCp`?P00PBho`MSSG@0?wj25Sd,0*67
!AIVDM,1,1,,A,B39nWu00:@4LavWGsN:JcwtUkP06,0*62
!AIVDM,1,1,,B,13aKV90P00PBES4MNeq@0gwj20S8,0*46
!AIVDO,1,1,,,B39qLF008@4O4PWIid5fWwUUkP06,0*6C
!AIVDM,1,1,,A,13aFeVPP1PPCvUtMT2C9Qgwl25Sd,0*59
$GPRMC,125958.00,A,5144.94004,N,00355.16830,E,3.286,178.14,041015,,,A*6B
$GPVTG,178.14,T,,M,3.286,N,6.086,K,A*31
$GPGGA,125958.00,5144.94004,N,00355.16830,E,1,10,1.07,-5.2,M,45.9,M,,*79
!AIVDM,1,1,,A,13`hotPP000BPiNMg@Qh0?wj08R7,0*1E
!AIVDM,1,1,,A,13`w<J00000Bi1`MSTT793in08R9,0*48
$GPGSA,M,3,08,18,32,14,22,11,19,01,27,04,,,2.12,1.07,1.83*0E
$GPGSV,4,1,13,01,38,270,24,03,06,216,14,04,67,274,29,08,75,194,26*7F
!AIVDM,1,1,,B,83aK`N0j2d<dtefNLPd8U@OP5C00,0*7B
$GPGSV,4,2,13,10,29,147,17,11,51,280,27,14,27,100,31,18,12,050,14*71
!AIVDM,1,1,,B,133fKJ00000Cdo2MdCi`oSun0@R?,0*60
!AIVDM,1,1,,A,13b5sh0OhRPC6SLMf::U<T1j05Sd,0*68
$GPGSV,4,3,13,19,59,294,27,22,47,065,33,27,42,146,29,28,22,319,18*71
!AIVDM,1,1,,B,13aDqWPP010BDVvMfaG86gwjP<4Q,0*43
$GPGSV,4,4,13,32,38,199,20*42
!AIVDM,1,1,,B,13aD@<OP000Al3lMVo=00?wj05Sd,0*7A
$GPGLL,5144.94004,N,00355.16830,E,125958.00,A,A*69
!AIVDM,1,1,,A,14`WOh00000Bta4Mfq`=NQ=j05Sd,0*1D
!AIVDM,1,1,,B,13aS=600000@q4BMRJv@Tq9n0L1N,0*7B
!AIVDM,1,1,,A,13@aEB6000PA0IPMLr1`0VKd08RQ,0*5C
!AIVDO,1,1,,,B39qLF00804O4QWIicQgGwV5kP06,0*0C
!AIVDM,1,1,,B,13btoH?P00P@pwJMR@t00?wl2@RR,0*59
$GPRMC,125959.00,A,5144.93922,N,00355.16844,E,2.903,178.18,041015,,,A*68
!AIVDM,1,1,,A,13aAHN000q0CJf`Me99ljkqn0<Aq,0*1A
$GPVTG,178.18,T,,M,2.903,N,5.376,K,A*35
!AIVDM,1,1,,A,13c;hP8P000BLWjMaul9tOwn2@Rc,0*42
!AIVDM,1,1,,A,13baM<002:0AUhTMi9Hl6k=l2HRe,0*3E
!AIVDM,1,1,,B,19NSGK002B0BH`DMKNEcrqSn0<<C,0*71
$GPGGA,125959.00,5144.93922,N,00355.16844,E,1,10,1.07,-5.3,M,45.9,M,,*70
!AIVDM,1,1,,A,13aEOEhP00PBMi0Mf3nh:wwlR<4N,0*68
!AIVDM,1,1,,B,13bMOT00000AkwHMVq3<K:al0<15,0*27
$GPGSA,M,3,08,18,32,14,22,11,19,01,27,04,,,2.12,1.07,1.83*0E
$GPGSV,4,1,13,01,38,270,23,03,06,216,13,04,67,274,28,08,75,194,24*7C
!AIVDM,1,1,,B,13aNbA00000BQE0MgARlMkT008Rl,0*5C
!AIVDM,1,1,,A,13`rCr0P000BgwJMT2Lb=wv008Rm,0*71
$GPGSV,4,2,13,10,29,147,16,11,51,280,27,14,27,100,30,18,12,050,13*76
$GPGSV,4,3,13,19,59,294,27,22,47,065,32,27,42,146,29,28,22,319,17*7F
!AIVDM,1,1,,A,14`WSA?01O0C0T`MfVu<4aen00SW,0*6E
$GPGSV,4,4,13,32,38,199,21*43
!AIVDM,1,1,,B,13clad01it0@CclMf8gBqj?l@PRM,0*7C
$GPGLL,5144.93922,N,00355.16844,E,125959.00,A,A*61
!AIVDM,1,1,,B,13aI9mPP00PAkevMVpcu2wwn28Rv,0*3D
!AIVDM,1,1,,B,23aI;B0P00PBP8BMefAf4?wnP0SI,0*2C
!AIVDM,1,1,,B,B3aN4;00004NW>WIUSs;WwuUkP06,0*0A
!AIVDM,1,1,,A,13aN4P@P00PCHmjMdQR00?wnR5Sd,0*7F
!AIVDM,1,1,,A,133u9tPP00PBauvMfPHRSgwn25Sd,0*23
!AIVDO,1,1,,,B39qLF007@4O4R7Iic1gGwVUkP06,0*10
!AIVDM,1,1,,A,33bBTF0P00PBM1RMat8@0?v02?B3,0*5D
!AIVDM,1,1,,A,402E3MAuvR<ssPBlpPMgVN700D;E,0*66
!AIVDM,1,1,,B,B3aGD>00084`m77JKQcQ3w`5oP06,0*73
$GPRMC,130000.00,A,5144.93829,N,00355.16853,E,3.088,178.05,041015,,,A*62
!AIVDM,1,1,,A,402E3N1uvR<ssP@jfPMeS4G00804,0*0C
$GPVTG,178.05,T,,M,3.088,N,5.719,K,A*3F
$GPGGA,130000.00,5144.93829,N,00355.16853,E,1,10,1.07,-5.5,M,45.9,M,,*7B
!AIVDM,1,1,,A,13aDrGPP00PDP4dMdRkja?wn280:,0*1D
!AIVDM,1,1,,B,141jV:?P00PBMoBMf27@0?v020SG,0*3B
$GPGSA,M,3,08,18,32,14,22,11,19,01,27,04,,,2.12,1.07,1.83*0E
!AIVDM,1,1,,B,139n43PP1bPBF?bMQfpJ6Ov0RL30,0*4F
!AIVDM,1,1,,A,B3aKVTP0=04UES7ILT9F7wP5kP06,0*64
$GPGSV,4,1,13,01,38,270,22,03,06,216,13,04,67,274,27,08,75,194,24*72
$GPGSV,4,2,13,10,29,147,13,11,51,280,28,14,27,100,30,18,12,050,13*7C
!AIVDM,1,1,,B,13aO?qh000PC9LrMf5fA=qcl0@0@,0*71
!AIVDM,1,1,,B,13aEPO@P1JPC6aJMSqqCDwv0R<2R,0*5F
$GPGSV,4,3,13,19,59,294,27,22,47,065,31,27,42,146,29,28,22,319,17*7C
$GPGSV,4,4,13,32,38,199,23*41
!AIVDM,1,1,,A,13aGG6@P00PBG;6MfmsIHwv2R80E,0*23
$GPGLL,5144.93829,N,00355.16853,E,130000.00,A,A*6C
!AIVDM,1,1,,B,181:K`@000PC8T0Mf90qrqb020Sf,0*06
!AIVDM,1,1,,B,13aGsE@P00PC4s`Meee49wv02@0H,0*0D
!AIVDM,1,1,,A,13aJIU3P00PAvqrMSIR00?v02<1:,0*6D
!AIVDM,1,1,,A,13c6wl0PB10@wGPMIn@Un4Wn0H0N,0*73
!AIVDM,1,1,,A,13aDpaPP010BRW2MfBWGIOwnP80P,0*3A
!AIVDO,1,1,,,B39qLF007P4O4RWIibIgCwW5kP06,0*7C
!AIVDM,1,1,,A,13aJmt0v2SP@2d>MihOrG`P0@5`0,0*5A
!AIVDM,1,1,,B,13auDv?000PC4vPMSwpHh8F20H0U,0*67
!AIVDM,2,1,1,A,53aFfAD000010G?S3J1@E9@UE>2222222222220t10A345f:V43S1lQL<M<@,0*43
!AIVDM,2,2,1,A,@jE6F<<<=L0,2*77
$GPRMC,130001.00,A,5144.93741,N,00355.16862,E,3.070,177.27,041015,,,A*68
!AIVDM,1,1,,B,1815@H@01cP??I>MdUAC52En05`0,0*22
$GPVTG,177.27,T,,M,3.070,N,5.686,K,A*30
!AIVDM,1,1,,B,13bdHd0P00PBfMFMT89P0?v220SW,0*17
$GPGGA,130001.00,5144.93741,N,00355.16862,E,1,10,1.07,-5.8,M,45.9,M,,*74
$GPGSA,M,3,08,18,32,14,22,11,19,01,27,04,,,2.12,1.07,1.83*0E
$GPGSV,4,1,13,01,38,270,20,03,06,216,13,04,67,274,27,08,75,194,24*70
!AIVDM,1,1,,A,13aLrh7P00PBLpvMatFh0?v220Sr,0*32
$GPGSV,4,2,13,10,29,147,11,11,51,280,28,14,27,100,31,18,12,050,13*7F
!AIVDM,1,1,,A,13aC2O@P000CW9vMdEJ@0?v00<3w,0*67
$GPGSV,4,3,13,19,59,294,26,22,47,065,30,27,42,146,29,28,22,319,18*73
$GPGSV,4,4,13,32,38,199,23*41
$GPGLL,5144.93741,N,00355.16862,E,130001.00,A,A*6E
!AIVDM,1,1,,A,H39fn@TTCBD5PHr4;nipn0103310,0*10
!AIVDM,1,1,,A,13aN3i0P00PC>RjMeh@@0?v225`0,0*78
!AIVDM,2,1,2,B,53akL:026Lb10I=>221abo>0<u8rr0`tP4pqE>0N3p6456L902@TUBCRDliH,0*77
!AIVDM,2,2,2,B,88888888880,2*25
!AIVDO,1,1,,,B39qLF007P4O4S7IiaqfkwWUkP06,0*6F
!AIVDM,1,1,,A,B3aBLaP0004fW@7JKQ`03wPUoP06,0*33
!AIVDM,1,1,,A,13b0<T70000BMV<MaqcpHFj40D9w,0*68
!AIVDM,1,1,,A,13`e=c@P00PCLT4McpIDCgv220SF,0*74
!AIVDM,1,1,,B,13boCr?P000BMphMapN@0?v2281>,0*4F
!AIVDM,1,1,,A,139EKv0P000BPL8MaWaE`wv40@1?,0*27
$GPRMC,130002.00,A,5144.93652,N,00355.16880,E,3.125,177.76,041015,,,A*61
$GPVTG,177.76,T,,M,3.125,N,5.788,K,A*3A
$GPGGA,130002.00,5144.93652,N,00355.16880,E,1,10,1.07,-5.7,M,45.9,M,,*77
!AIVDM,1,1,,A,13aGtg?P01PAg@bMVpGBDgv425`0,0*73
!AIVDM,1,1,,A,13Uls600000CRO@McsgTn2B40<<P,0*52
$GPGSA,M,3,08,18,32,14,22,11,19,01,27,04,,,2.12,1.07,1.83*0E
$GPGSV,4,1,13,01,38,270,19,03,06,216,13,04,67,274,26,08,75,194,25*7A
$GPGSV,4,2,13,10,29,147,11,11,51,280,28,14,27,100,31,18,12,050,13*7F
$GPGSV,4,3,13,19,59,294,22,22,47,065,34,27,42,146,29,28,22,319,20*78
$GPGSV,4,4,13,32,38,199,25*47
!AIVDM,1,1,,B,13aKTlP000PBhl@MSRp003b420S0,0*3B
$GPGLL,5144.93652,N,00355.16880,E,130002.00,A,A*62
!AIVDM,1,1,,A,83aFfA@j2d<dteeutPO@S?`05000,0*1A
!AIVDM,1,1,,A,B3`jd8@08P4ei;7JLpieOwo5oP06,0*0C
!AIVDM,1,1,,A,402E35iuvR=02PAO`@MVUr7005`0,0*44
!AIVDM,1,1,,A,13aGrLPP01PBPA`MadWf4?v42<72,0*65
!AIVDM,1,1,,B,13aL=>`P0NPBGH4Mfk63??v225`0,0*38
!AIVDM,1,1,,B,B39fn@P0084bi=7I59SQ3waUoP06,0*76
!AIVDO,1,1,,,B39qLF007h4O4T7IiaEg7w`5kP06,0*6E
!AIVDM,1,1,,A,33b8Kr5000PBN0tMau7VOI`00DUb,0*75
$GPRMC,130003.00,A,5144.93563,N,00355.16892,E,3.129,178.79,041015,,,A*6E
!AIVDM,1,1,,B,13aGse0P00PBMvpMf1JR;wvdPhCw,0*7E
$GPVTG,178.79,T,,M,3.129,N,5.795,K,A*3A
!AIVDM,1,1,,B,35Ng=65000PCp?bMG`5b9`840P00,0*32
$GPGGA,130003.00,5144.93563,N,00355.16892,E,1,09,1.24,-5.6,M,45.9,M,,*7C
$GPGSA,M,3,08,32,14,22,11,19,01,27,04,,,,2.79,1.24,2.50*06
$GPGSV,4,1,13,01,38,270,19,03,06,216,12,04,67,274,28,08,75,194,23*73
!AIVDM,1,1,,A,13bg0b03@0PBfH0Mfn<qfRT40D6P,0*42
$GPGSV,4,2,13,10,29,147,14,11,51,280,28,14,27,100,30,18,12,050,*79
$GPGSV,4,3,13,19,59,294,19,22,47,065,31,27,42,146,30,28,22,319,20*7D
!AIVDM,1,1,,B,19NSBI@31v0?>7VMbA5o2UR20823,0*65
$GPGSV,4,4,13,32,38,199,25*47
$GPGLL,5144.93563,N,00355.16892,E,130003.00,A,A*61
!AIVDM,1,1,,A,141jV:?P00PBMoBMf26@0?v62828,0*29
!AIVDM,1,1,,B,13aEOL0P1M0CC3RMRctqPwv6PH2>,0*47
!AIVDM,1,1,,A,B39lFGP09H4`6l7HS?DQKwQUoP06,0*1B
!AIVDO,1,1,,,B39qLF007h4O4TWIi`iggw`UkP06,0*13
!AIVDM,1,1,,A,13aI:K0P07PBhhBMSRA9vOv62@2E,0*02
!AIVDM,1,1,,A,33aGuIOP@0PAO3vMTdpM;888210P,0*68
!AIVDM,1,1,,B,13aQ76w0000BPNjMabeaDiF80<86,0*4C
$GPRMC,130004.00,A,5144.93471,N,00355.16879,E,3.398,182.85,041015,,,A*60
$GPVTG,182.85,T,,M,3.398,N,6.293,K,A*34
$GPGGA,130004.00,5144.93471,N,00355.16879,E,1,09,1.24,-5.8,M,45.9,M,,*72
$GPGSA,M,3,08,32,14,22,11,19,01,27,04,,,,2.79,1.24,2.50*06
$GPGSV,4,1,13,01,38,270,18,03,06,216,12,04,67,274,29,08,75,194,22*72
!AIVDM,1,1,,B,13baM<002;0AUs`Mi97l<3:82@2T,0*34
$GPGSV,4,2,13,10,29,147,10,11,51,280,27,14,27,100,28,18,12,050,*7B
$GPGSV,4,3,13,19,59,294,16,22,47,065,30,27,42,146,23,28,22,319,21*70
$GPGSV,4,4,13,32,38,199,24*46
$GPGLL,5144.93471,N,00355.16879,E,130004.00,A,A*61
!AIVDM,1,1,,A,133taT000wP@gD0MfTd2vj>:00RW,0*26
!AIVDM,1,1,,A,14Rk1N041SPCjhNMdL0:PHT:0<Fw,0*78
!AIVDM,1,1,,A,33B54H0PAqPAi7pMiOOc18l800r@,0*6A
!AIVDM,1,1,,B,13bB<r7P00PBM<FMasgP0?v82D7T,0*37
!AIVDM,1,1,,B,B3`enL@0;@4h?N7JCrnpgwR5kP06,0*4D
!AIVDO,1,1,,,B39qLF008@4O4SWIi`=jCwa5kP06,0*2F
!AIVDM,1,1,,B,D02E35Pmtg6D000000000000000,2*4E
!AIVDM,1,1,,A,13aFfAHP01PBGN:MQUS=lgv:2@2u,0*49
!AIVDM,1,1,,B,13b?AJ7P000BOV0Mahk00?v800RB,0*03
$GPRMC,130005.00,A,5144.93375,N,00355.16864,E,3.586,184.52,041015,,,A*6B
$GPVTG,184.52,T,,M,3.586,N,6.641,K,A*3A
!AIVDM,1,1,,A,277VjP5000PCQNTMHPU1ia840<;g,0*40
$GPGGA,130005.00,5144.93375,N,00355.16864,E,1,09,1.34,-5.8,M,45.9,M,,*7D
!AIVDM,1,1,,B,13aFegPP00PBLr@Mfu>>4?v:20Rr,0*55
$GPGSA,M,3,08,18,32,22,11,19,01,27,04,,,,3.30,1.34,3.02*01
!AIVDM,1,1,,B,13aL?2PP00PAqlVMVNt00?v:2836,0*00
!AIVDM,1,1,,B,13aEQLhP18PBPsdMR=mq8gv8R0S>,0*5A
$GPGSV,4,1,13,01,38,270,20,03,06,216,12,04,67,274,21,08,75,194,22*71
!AIVDM,1,1,,A,13aDon@P1QPCAhLMRW<jCwv:283:,0*63
$GPGSV,4,2,13,10,29,147,19,11,51,280,16,14,27,100,,18,12,050,11*7A
$GPGSV,4,3,13,19,59,294,17,22,47,065,30,27,42,146,22,28,22,319,21*70
$GPGSV,4,4,13,32,38,199,22*40
!AIVDM,1,1,,A,13aGEF0P02PBRIjMfnOmcgv:283?,0*29
$GPGLL,5144.93375,N,00355.16864,E,130005.00,A,A*6F
!AIVDM,1,1,,A,13aI9AhP00PBhhNMSv`algv<R0Rk,0*63
!AIVDM,1,1,,A,13aIjp@P01PAfVnMVnP=H?v:2@3E,0*6F
!AIVDM,1,1,,A,13`hBw0P000BJt8MgLt@0?v805`0,0*4B
!AIVDO,1,1,,A,B39qLF008h4O4S7IiWUkGwaUkP06,0*1C
$PAMC,R,TXT,000,TX_PWR,Lv=0,1983,1.598*10
!AIVDM,1,1,,B,13aD@u0P00PBwRDMff0iRgv:R@3N,0*26
!AIVDO,1,1,,,B39qLF008h4O4S7IiWUkGwaUkP06,0*5D
!AIVDM,1,1,,B,13aL>lwP00PC;dtMWw<P0?v<283S,0*69
$GPRMC,130006.00,A,5144.93252,N,00355.16859,E,3.948,184.18,041015,,,A*62
!AIVDM,1,1,,A,13;4td000R0C6KtMf:eU<al60@3V,0*10
$GPVTG,184.18,T,,M,3.948,N,7.312,K,A*38
$GPGGA,130006.00,5144.93252,N,00355.16859,E,1,09,1.34,-5.5,M,45.9,M,,*79
!AIVDM,1,1,,B,13aBNa`P000BSeTMfIfh0?v:P@3c,0*64
$GPGSA,M,3,08,18,32,22,11,19,01,27,04,,,,3.30,1.34,3.02*01
!AIVDM,1,1,,B,13aGG70P0bPA=DHMTKCrmgv<2@3e,0*64
!AIVDM,1,1,,B,D02E35hm4g6D000000000000000,2*36
$GPGSV,4,1,13,01,38,270,29,03,06,216,12,04,67,274,23,08,75,194,21*79
!AIVDM,1,1,,B,13K2?v10?wP?ELHM`4gv40f60L<P,0*3C
!AIVDM,1,1,,A,13a:?L00000@pwlMRJis?q:>0@3i,0*38
!AIVDM,1,1,,B,13`lQr`P010BMrpMf1e7>Ov:0@3i,0*5B
$GPGSV,4,2,13,10,29,147,21,11,51,280,28,14,27,100,09,18,12,050,17*73
!AIVDM,1,1,,A,B3aLn5@0?h4`fO7HUVbRKwS5kP06,0*50
$GPGSV,4,3,13,19,59,294,23,22,47,065,30,27,42,146,20,28,22,319,21*75
$GPGSV,4,4,13,32,38,199,21*43
!AIVDM,1,1,,A,133m7pPP010BPStMf?V7LOv:P0Rn,0*5F
$GPGLL,5144.93252,N,00355.16859,E,130006.00,A,A*66
!AIVDM,1,1,,A,13aEOR@P000A0HrMRwLaSgv>283u,0*03
!AIVDM,1,1,,B,339eh1PP1tPD12TMbRscEOv>R27Q,0*0F
!AIVDM,1,1,,B,17722:02QHPCCCnMejhE3T6>0<Di,0*69
!AIVDM,1,1,,A,13aDCrOP00PBOFpMfCk=Owv<R@44,0*1A
!AIVDM,1,1,,B,33aKWREP00PC5s4MT05alwv>RDh:,0*14
!AIVDO,1,1,,,B39qLF009h4O4RWIiVmk7wb5kP06,0*17
!AIVDM,1,1,,A,13aC4bOP00PBRpDMfHR8L?v>2D:7,0*72
$GPRMC,130007.00,A,5144.93211,N,00355.16840,E,2.626,185.12,041015,,,A*61
$GPVTG,185.12,T,,M,2.626,N,4.863,K,A*3B
!AIVDM,1,1,,B,333tcNPP010A01pMLpvo7?v:04NS,0*7B
!AIVDM,1,1,,B,13`oob0P@n0@`ClMVjrB8AL>0@4?,0*65
$GPGGA,130007.00,5144.93211,N,00355.16840,E,1,10,1.34,-5.4,M,45.9,M,,*7E
!AIVDM,1,1,,B,13aJmt0vjVP@2MhMihObG`P<@0SL,0*2D
$GPGSA,M,3,08,18,32,14,22,11,19,01,27,04,,,3.31,1.34,3.02*05
!AIVDM,1,1,,A,13aDrn@01oPBaRtMRgwHjW4<R5`0,0*23
!AIVDM,1,1,,A,13P7GbW0?wPBOuTMagJN49b<00Rv,0*0D
$GPGSV,4,1,13,01,38,270,29,03,06,216,12,04,67,274,24,08,75,194,23*7C
!AIVDM,1,1,,A,33biLr5P000@J7lML3;V=gv<0000,0*58
!AIVDM,1,1,,B,13aGrvhP00PBQK:Mf@VUo?wHPPT5,0*69
$GPGSV,4,2,13,10,29,147,20,11,51,280,28,14,27,100,17,18,12,050,18*72
!AIVDM,1,1,,A,B3aOC3h0<`4bDeWHVbtiowSUoP06,0*6B
$GPGSV,4,3,13,19,59,294,25,22,47,065,31,27,42,146,18,28,22,319,22*7A
!AIVDM,1,1,,A,13esJd00000BQA<Mfiia6UH>05`0,0*48
!AIVDM,1,1,,B,13`w<J00000Bi1dMSTSogkf@084J,0*22
$GPGSV,4,4,13,32,38,199,19*48
!AIVDM,1,1,,A,13aCp`?P00PBhoRMSSG00?v>2<2D,0*3B
$GPGLL,5144.93211,N,00355.16840,E,130007.00,A,A*68
!AIVDM,1,1,,A,H3aLl0A@TlF0uE@000000000000,2*11
!AIVDM,1,1,,A,13bMOT00000AkwHMVq36cb`<0<17,0*0D
!AIVDM,1,1,,B,13aOBk00000BbKnMfR9t>1T@00Sf,0*0F
!AIVDO,1,1,,,B39qLF006P4O4R7IiVUkgwbUkP06,0*48
!AIVDM,1,1,,A,13bDQF7P?w<tSF0l4Q@>4?wv1p4c,0*3C
$GPRMC,130008.00,A,5144.93146,N,00355.16843,E,2.386,185.23,041015,,,A*61
$GPVTG,185.23,T,,M,2.386,N,4.418,K,A*36
!AIVDM,1,1,,B,B34H:sP0A84Sf67HJM:iCwSUoP06,0*6F
$GPGGA,130008.00,5144.93146,N,00355.16843,E,1,10,1.12,-5.6,M,45.9,M,,*75
$GPGSA,M,3,08,18,32,14,22,11,19,01,27,04,,,2.16,1.12,1.85*08
!AIVDM,1,1,,A,13aJHp00000BSc2MMv:hS8H@0H4q,0*3D
$GPGSV,4,1,13,01,38,270,27,03,06,216,12,04,67,274,24,08,75,194,24*75
!AIVDM,1,1,,B,133T;:?01=0@WC8MK`O2nR>B0@4r,0*73
$GPGSV,4,2,13,10,29,147,22,11,51,280,27,14,27,100,21,18,12,050,18*7A
$GPGSV,4,3,13,19,59,294,23,22,47,065,29,27,42,146,20,28,22,319,24*78
$GPGSV,4,4,13,32,38,199,20*42
$GPGLL,5144.93146,N,00355.16843,E,130008.00,A,A*65
!AIVDM,1,1,,B,13eP8V00000BPrHMab00544805`0,0*72
!AIVDM,1,1,,A,23aI;B0P00PBP8DMefAf4?v@P0S8,0*77
!AIVDM,1,1,,B,333tcNPP010A01pMLpvo7gv>04Ii,0*1A
!AIVDM,1,1,,A,13aGs3@P00PBekhMfRg0I?w6Qh5;,0*08
!AIVDM,1,1,,A,13aS=600000@q4LMRJw0Tq8B0<1N,0*5A
!AIVDM,1,1,,A,13aI99UP1:PCrG<MSlWC1?v@R85?,0*26
!AIVDM,1,1,,B,13b<Er?0000BNuDMfjJitm<B0<98,0*44
!AIVDM,1,1,,B,133u9tPP00PBauvMfPHRSgv@25`0,0*68
!AIVDO,1,1,,,B39qLF005h4O4R7IiV9kkwc5kP06,0*72
!AIVDM,1,1,,B,13aDpaPP010BRW2MfBWGHwv>P<6o,0*6C
$GPRMC,130009.00,A,5144.93054,N,00355.16872,E,2.645,182.14,041015,,,A*69
!AIVDM,1,1,,A,13aD@<OP000Al3lMVo=00?v>00Sm,0*20
!AIVDM,1,1,,B,13U8c4002Q0>VtTMUHhWHUj>885H,0*5D
$GPVTG,182.14,T,,M,2.645,N,4.898,K,A*3B
$GPGGA,130009.00,5144.93054,N,00355.16872,E,1,10,1.12,-5.8,M,45.9,M,,*7A
!AIVDM,1,1,,B,13aPMsOP00PBh74MT1s00?v@2@5M,0*16
$GPGSA,M,3,08,18,32,14,22,11,19,01,27,04,,,2.16,1.12,1.85*08
!AIVDM,1,1,,A,B3`oWJP0=@4bGf7I96i;OwTWCP06,0*22
!AIVDM,1,1,,A,E02E340W6@1WPab3bPa200000000:usB?9TV@00003v010,4*1F
$GPGSV,4,1,13,01,38,270,27,03,06,216,18,04,67,274,26,08,75,194,24*7D
!AIVDM,1,1,,B,B3aL?400;p4aFl7IAAnRSwTUoP06,0*18
!AIVDM,1,1,,A,13aNbA00000BQE0MgARlM3TD0@5R,0*52
!AIVDM,1,1,,B,13b6;H501E0Cl9rMcH>D:3HD085R,0*53
$GPGSV,4,2,13,10,29,147,23,11,51,280,26,14,27,100,23,18,12,050,16*76
!AIVDM,1,1,,B,14`Wco0000PBu<4Mfo=bUc0D0@5T,0*3C
$GPGSV,4,3,13,19,59,294,21,22,47,065,28,27,42,146,19,28,22,319,23*76
!AIVDM,1,1,,A,13aO?qh000PC9LrMf5f1=qb>0@5V,0*42
!AIVDM,1,1,,B,1815@I@01?P@VgdMKW<BvR@B085V,0*78
$GPGSV,4,4,13,32,38,199,20*42
!AIVDM,1,1,,A,141jV:?P00PBMoDMf25h0?vB25`0,0*27
$GPGLL,5144.93054,N,00355.16872,E,130009.00,A,A*64
!AIVDM,1,1,,B,13aEOEhP00PBMhrMf3oP:wvBRH5f,0*63
!AIVDM,1,1,,B,13aGuBhP00PCL?lMe>=@0?vB25`0,0*05
!AIVDM,1,1,,B,13aKV7PP00PBPADMakaaVwvD20St,0*5A
!AIVDM,1,1,,A,B3`j6PP0004c@CWIIbP03wTUkP06,0*22
!AIVDM,1,1,,A,401uEPAuvR=090CNEVMHfkw00L<M,0*3B
!AIVDM,1,1,,B,402E3MQuvR=09PCgs2Md@WG00<?b,0*31
!AIVDO,1,1,,,B39qLF006P4O4SWIiUUiowcUkP06,0*21
!AIVDM,1,1,,B,402E3N1uvR=09P@jfPMeS4G000S:,0*62
$GPRMC,130010.00,A,5144.92975,N,00355.16897,E,2.618,181.15,041015,,,A*6B
$GPVTG,181.15,T,,M,2.618,N,4.849,K,A*3D
!AIVDM,1,1,,B,13b<>600000AtGpMSGLcCHBD0@5u,0*08
$GPGGA,130010.00,5144.92975,N,00355.16897,E,1,10,1.07,-6.1,M,45.9,M,,*7C
!AIVDM,1,1,,A,13bdHd0P00PBfMRMT89h0?vD2@60,0*3C
!AIVDM,1,1,,B,13bmr47P00PBN7PMap>00?vD25`0,0*0A
$GPGSA,M,3,08,18,32,14,22,11,19,01,27,04,,,2.12,1.07,1.83*0E
$GPGSV,4,1,13,01,38,270,27,03,06,216,20,04,67,274,26,08,75,194,22*70
$GPGSV,4,2,13,10,29,147,25,11,51,280,28,14,27,100,28,18,12,050,15*76
!AIVDM,1,1,,B,13aBNRPP000BGAbMfi3@0?vB00R`,0*36
$GPGSV,4,3,13,19,59,294,19,22,47,065,29,27,42,146,20,28,22,319,24*71
!AIVDM,1,1,,A,13`ga7wP000BTAHMfJ0P0?vB0@6h,0*69
$GPGSV,4,4,13,32,38,199,20*42
$GPGLL,5144.92975,N,00355.16897,E,130010.00,A,A*6C
!AIVDM,1,1,,A,13auDv?000PC4vPMSwp9q8HF05`0,0*3E
!AIVDM,1,1,,B,13aN4P@P00PCHmjMdQQh0?vDR5`0,0*6B
!AIVDM,1,1,,B,139EKv0P000BPL6MaWaVo?vF0D8:,0*04
!AIVDM,1,1,,A,13aI9mPP00PAkevMVpcu2wvD25`0,0*6C
