!AIVDM,1,1,,B,13WkrrPP1MPCkrNMSiob6gvH2608,0*3A
!AIVDM,1,1,,A,H3aN29Q`tp00000000000000000,2*7E
!AIVDM,1,1,,B,13aEOuPP1NPChQlMSbFS1OvHR<6B,0*33
!AIVDM,1,1,,A,H3aN29TU0000000@1nkhk00p4310,0*49
!AIVDM,1,1,,B,13aC26hP1QPDPDVMU5uSl?vHR<3w,0*43
!AIVDM,1,1,,B,13aGushP00PDERBMU9rC0wvH287T,0*7E
!AIVDO,1,1,,,B39qLF00?@4skaWIR7Nmowl5kP06,0*40
$GPRMC,160213.00,A,5143.34695,N,00418.70655,E,6.299,290.95,241015,,,A*6B
!AIVDM,1,1,,B,13aGF4P000PD;:FMTu6001PJ2@7d,0*10
$GPVTG,290.95,T,,M,6.299,N,11.666,K,A*08
!AIVDM,1,1,,B,13aEOhhP1iPCr1jMbpJ<MwvH20Rn,0*6D
$GPGGA,160213.00,5143.34695,N,00418.70655,E,1,08,0.98,-4.1,M,46.0,M,,*7A
!AIVDM,1,1,,A,13aDr90P000D?;2MU??;C?vLR<9n,0*34
$GPGSA,M,3,23,17,03,06,31,09,32,01,,,,,1.89,0.98,1.61*00
!AIVDM,1,1,,B,13aGEg0P0QPC?sdMSbuu0?vL2@7k,0*7E
$GPGSV,3,1,12,01,21,146,26,02,07,313,16,03,55,085,22,06,41,302,19*7A
!AIVDM,1,1,,A,13`fLNpP0oPD9;fMV3049wvJ2H7m,0*51
$GPGSV,3,2,12,09,44,212,18,11,03,157,26,12,01,323,09,17,29,239,23*73
$GPGSV,3,3,12,23,76,145,24,25,04,358,20,31,18,038,20,32,18,087,15*72
$GPGLL,5143.34695,N,00418.70655,E,160213.00,A,A*6C
!AIVDM,1,1,,A,38KPgn50000CVq0MdFbdRU2H0000,0*4A
!AIVDM,1,1,,A,18I1kv000HPCvSPMdTmS`S2J0D<P,0*44
!AIVDM,1,1,,B,13aQ6o00000CDh`MdTmKPrlL0608,0*26
!AIVDM,1,1,,A,83aJIs0j2d<dtd=LdA8Hq@QU00L0,0*15
!AIVDO,1,1,,,B39qLF00?P4skLWIR7nmowlUkP06,0*3D
!AIVDM,1,1,,A,13aDC0@P020CgCjMcVL35?vFR<7d,0*5D
$GPRMC,160214.00,A,5143.34750,N,00418.70393,E,6.436,291.13,241015,,,A*67
$GPVTG,291.13,T,,M,6.436,N,11.920,K,A*09
!AIVDM,1,1,,A,133kf2PP00PD;H>MTsrt;?vLR88B,0*33
$GPGGA,160214.00,5143.34750,N,00418.70393,E,1,08,0.98,-4.1,M,46.0,M,,*7A
$GPGSA,M,3,23,17,03,06,31,09,32,01,,,,,1.89,0.98,1.61*00
$GPGSV,3,1,12,01,21,146,26,02,07,313,17,03,55,085,21,06,41,302,20*72
!AIVDM,1,1,,A,13aEPShP00PD0fNMSeHP0?vL2H8L,0*6F
$GPGSV,3,2,12,09,44,212,18,11,03,157,27,12,01,323,09,17,29,239,23*72
$GPGSV,3,3,12,23,76,145,23,25,04,358,19,31,18,038,21,32,18,087,13*78
$GPGLL,5143.34750,N,00418.70393,E,160214.00,A,A*6C
!AIVDM,1,1,,A,13aEPk@P00PD8I`MTd3P0?vL2@8V,0*19
!AIVDM,1,1,,A,133oAiP01E0DLgjMU=`;3plN0H8c,0*4D
!AIVDM,1,1,,B,13aBNJ@0000C4dfMT5fe;pJJ0<1V,0*3A
!AIVDO,1,1,,,B39qLF00@04sk?WIR8>mwwm5kP06,0*77
!AIVDM,1,1,,A,13aEOS?P00PD?0FMU>7o7OvLR892,0*73
$GPGLL,5143.34781,N,00418.70169,E,160215.00,A,A*66
!AIVDM,1,1,,A,339eKr0P00PD?GNMU8av4?vNR?43,0*6F
!AIVDM,1,1,,B,139beTPP0E0D?3JMU=4I>gvLP<3w,0*19
!AIVDM,1,1,,A,13aDr;@P00PC;gjMWwbh0?vLR@9=,0*39
!AIVDM,1,1,,B,13aGFDhP00PD<LPMTv4P0?vN289=,0*3D
!AIVDM,1,1,,A,13aEP6PP00PD>cfMU<bpqwv62D32,0*4E
!AIVDM,1,1,,A,13aEOuPP1NPChUdMSbK31?vNR0S?,0*33
!AIVDM,1,1,,B,13aNac@P00PCfp2McaPcugw:R0RP,0*6E
!AIVDM,1,1,,B,13aDrb@P11PDOw0MU:TbggvN2@9E,0*3C
!AIVDM,1,1,,A,33aENk0P00PD7m>MTa`C4?vN22uk,0*41
!AIVDM,1,1,,B,139jMt001FPCWn>MSIj2FipN289G,0*44
!AIVDM,2,1,1,A,539e1l400000@?CKO008h4p@Tp4000000000001I<@<64uIV02DSm51DQ0C@,0*51
!AIVDM,2,2,1,A,00000000000,2*25
!AIVDO,1,1,,,B39qLF00@04sk47IR8JmwwmUkP06,0*08
$GPRMC,160216.00,A,5143.34837,N,00418.69965,E,5.630,292.24,241015,,,A*60
!AIVDM,2,1,2,B,53aDpn0000010G;WC21=0tq@44r222222222221?8h:465c<06BBSEBA1C`8,0*4E
!AIVDM,2,2,2,B,88888888880,2*25
$GPVTG,292.24,T,,M,5.630,N,10.426,K,A*03
$GPGGA,160216.00,5143.34837,N,00418.69965,E,1,08,0.98,-4.3,M,46.0,M,,*7F
$GPGSA,M,3,23,17,03,06,31,09,32,01,,,,,1.88,0.98,1.61*01
!AIVDM,1,1,,A,?39beTPrFLgPD00,2*19
$GPGSV,3,1,12,01,21,146,23,02,07,313,17,03,55,085,20,06,41,302,21*77
$GPGSV,3,2,12,09,44,212,13,11,03,157,28,12,01,323,08,17,29,239,25*71
$GPGSV,3,3,12,23,76,145,22,25,04,358,16,31,18,038,20,32,18,087,15*71
$GPGLL,5143.34837,N,00418.69965,E,160216.00,A,A*6B
!AIVDM,1,1,,B,139nEc0P00PC8<jMSosCfOvP2<5N,0*70
!AIVDM,1,1,,A,13aIin?P00PDDrTMU6m00?vP2H9k,0*60
!AIVDM,1,1,,A,13aDr3@P00PD?t>MU;62COvPR<3:,0*5B
!AIVDO,1,1,,,B39qLF00>04sjr7IR8fncwn5kP06,0*69
$GPRMC,160217.00,A,5143.34915,N,00418.69691,E,6.398,294.09,241015,,,A*69
!AIVDM,1,1,,A,133ljIPP00PD84tMTj=0sOvPRD3g,0*12
!AIVDM,1,1,,B,139f0`?P02PDQK`MTu8d@gvR2608,0*14
$GPVTG,294.09,T,,M,6.398,N,11.849,K,A*0A
$GPGGA,160217.00,5143.34915,N,00418.69691,E,1,08,0.98,-4.5,M,46.0,M,,*7D
$GPGSA,M,3,23,17,03,06,31,09,32,01,,,,,1.88,0.98,1.61*01
$GPGSV,3,1,12,01,21,146,21,02,07,313,19,03,55,085,19,06,41,302,21*71
$GPGSV,3,2,12,09,44,212,19,11,03,157,25,12,01,323,12,17,29,239,22*7A
!AIVDM,1,1,,B,83aDpn0j2ddL<<>NH1SpggaE7l00,0*64
$GPGSV,3,3,12,23,76,145,23,25,04,358,15,31,18,038,20,32,18,087,19*7F
!AIVDM,1,1,,B,83aDCPhj2d<dtee>=200q?ch00P0,0*74
$GPGLL,5143.34915,N,00418.69691,E,160217.00,A,A*6F
!AIVDM,1,1,,A,13aGD:PP00PD?V@MU:3P0?vR20SQ,0*2B
!AIVDO,1,1,,,B39qLF00?h4sjdWIR9>okwnUkP06,0*76
!AIVDM,1,1,,B,13aDp`?P1DPD5gDMTj;P>gvTR@:V,0*17
$GPRMC,160218.00,A,5143.34959,N,00418.69435,E,6.367,292.97,241015,,,A*63
$GPVTG,292.97,T,,M,6.367,N,11.791,K,A*01
!AIVDM,1,1,,A,13aC1uhP0r0D46NMTD;i@?vP00Sd,0*61
$GPGGA,160218.00,5143.34959,N,00418.69435,E,1,08,0.98,-4.6,M,46.0,M,,*75
$GPGSA,M,3,23,17,03,06,31,09,32,01,,,,,1.88,0.98,1.61*01
$GPGSV,3,1,12,01,21,146,20,02,07,313,19,03,55,085,18,06,41,302,21*71
!AIVDM,1,1,,B,33aC4g@P000CS<BMd3?@0?vR005i,0*08
$GPGSV,3,2,12,09,44,212,23,11,03,157,23,12,01,323,14,17,29,239,20*71
$GPGSV,3,3,12,23,76,145,22,25,04,358,13,31,18,038,19,32,18,087,21*79
!AIVDM,1,1,,B,10b`pthP00PC66`MT3M00?vT2<6W,0*7C
!AIVDM,1,1,,A,1340QuPP0:PD8eRMTg0R4OvTR0RO,0*2F
$GPGLL,5143.34959,N,00418.69435,E,160218.00,A,A*64
!AIVDM,1,1,,B,13aDB9@P0g<tSF0l4Q@4Fwwp0L7k,0*38
!AIVDM,1,1,,B,13aEOuPP1NPChaVMSbOC1?vTR8;1,0*36
!AIVDM,1,1,,A,133fKJ00000D9oBMcuEu42dV0@;3,0*37
!AIVDO,1,1,,,B39qLF00?h4sjOWIR9No7wo5kP06,0*10
$GPRMC,160219.00,A,5143.35011,N,00418.69159,E,6.763,291.12,241015,,,A*67
$GPVTG,291.12,T,,M,6.763,N,12.525,K,A*01
$GPGGA,160219.00,5143.35011,N,00418.69159,E,1,08,0.98,-4.2,M,46.0,M,,*7B
!AIVDO,1,1,,B,B39qLF00@h4sjAWIR9nmwwo5kP06,0*41
$PAMC,R,TXT,000,TX_PWR,Lv=0,2037,1.641*12
$GPGSA,M,3,23,17,03,06,31,09,32,01,,,,,1.88,0.98,1.61*01
$GPGSV,3,1,12,01,21,146,21,02,07,313,18,03,55,085,18,06,41,302,22*72
!AIVDM,1,1,,B,13aEQ5@P00PD;c>MTwE<3?v`20Sn,0*37
$GPGSV,3,2,12,09,44,212,24,11,03,157,22,12,01,323,13,17,29,239,18*7B
!AIVDM,1,1,,A,13aBNJ0P00PCV=fMV3fIA?vV20R;,0*4F
$GPGSV,3,3,12,23,76,145,20,25,04,358,11,31,18,038,18,32,18,087,21*78
$GPGLL,5143.35011,N,00418.69159,E,160219.00,A,A*6E
!AIVDM,1,1,,B,13aDod1P1CPChRlMSgT:;wvJR8;O,0*26
!AIVDM,1,1,,B,13aJIs?P00PD@1`MU;SCnwvV2608,0*5A
!AIVDM,1,1,,A,13aDq3PP0gPD4;bMSKaUVwvV20Rc,0*3E
!AIVDO,1,1,,,B39qLF00@h4sjAWIR9nmwwoUkP06,0*63
$GPRMC,160220.00,A,5143.35077,N,00418.68932,E,6.429,292.31,241015,,,A*66
!AIVDM,1,1,,A,13aFh80P00PD1<VMSm>P0?v`2D28,0*04
$GPVTG,292.31,T,,M,6.429,N,11.907,K,A*01
!AIVDM,1,1,,B,13aC5K@P00PD?MPMU9CP0?va2<0J,0*03
$GPGGA,160220.00,5143.35077,N,00418.68932,E,1,08,0.98,-4.3,M,46.0,M,,*74
!AIVDM,1,1,,B,14`VS=00000C=s`MeTj<v80R0<<P,0*43
$GPGSA,M,3,23,17,03,06,31,09,32,01,,,,,1.88,0.98,1.61*01
$GPGSV,3,1,12,01,21,146,23,02,07,313,17,03,55,085,16,06,41,302,23*70
$GPGSV,3,2,12,09,44,212,24,11,03,157,23,12,01,323,09,17,29,239,18*71
$GPGSV,3,3,12,23,76,145,19,25,04,358,08,31,18,038,17,32,18,087,19*7E
$GPGLL,5143.35077,N,00418.68932,E,160220.00,A,A*60
!AIVDM,1,1,,A,13aGEDPP1RPC`cdMSQIaHOv`RL2j,0*24
!AIVDM,1,1,,B,13aDCoP000PChr0MWB9P046`2608,0*18
!AIVDM,1,1,,B,133oTQPP1KPCLfhMRv3BTOvD28<A,0*13
$GPRMC,160221.00,A,5143.35106,N,00418.68694,E,6.140,290.46,241015,,,A*6B
!AIVDM,1,1,,A,13e;PB0000PCJR`MdNW493DT00S@,0*0E
!AIVDO,1,1,,,B39qLF00?@4sirWIR:JmSwp5kP06,0*78
$GPVTG,290.46,T,,M,6.140,N,11.371,K,A*02
$GPGGA,160221.00,5143.35106,N,00418.68694,E,1,08,0.98,-4.4,M,46.0,M,,*76
$GPGSA,M,3,23,17,03,06,31,09,32,01,,,,,1.88,0.98,1.61*01
!AIVDM,1,1,,B,13aGFHhP010D>E6MU;8WGwv`0<2p,0*2B
$GPGSV,3,1,12,01,21,146,22,02,07,313,18,03,55,085,16,06,41,302,25*78
$GPGSV,3,2,12,09,44,212,23,11,03,157,24,12,01,323,08,17,29,239,16*7E
!AIVDM,1,1,,B,B3aBLl@0;h52BT7IPcpuWwbUkP06,0*07
$GPGSV,3,3,12,23,76,145,17,25,04,358,08,31,18,038,16,32,18,087,19*71
$GPGLL,5143.35106,N,00418.68694,E,160221.00,A,A*65
!AIVDM,1,1,,A,13aDqR@P00PD8TtMTd`ksOvb2@<p,0*5E
!AIVDM,1,1,,B,13aGF9PP0t0Ckg6MSk7r8Ovb0608,0*2E
$GPRMC,160222.00,A,5143.35107,N,00418.68439,E,6.112,284.71,241015,,,A*6A
!AIVDM,1,1,,A,33aO?p0P0>PD7ePMTbajBwvb23JS,0*76
!AIVDO,1,1,,,B39qLF00?@4sieWIR:JiwwpUkP06,0*2F
$GPVTG,284.71,T,,M,6.112,N,11.319,K,A*0A
!AIVDM,1,1,,A,13aFf90P0bPD@?:MU@uId?vd00So,0*2E
$GPGGA,160222.00,5143.35107,N,00418.68439,E,1,08,0.98,-4.4,M,46.0,M,,*71
!AIVDM,1,1,,A,13aEOuPP1NPChePMSbSk1?vdRH=2,0*46
$GPGSA,M,3,23,17,03,06,31,09,32,01,,,,,1.88,0.98,1.61*01
!AIVDM,1,1,,A,133v`NPP1TPCn3pMShrC0?vd2608,0*42
!AIVDM,1,1,,A,13WkrrPP1MPCkenMSibr7?vd2@=5,0*10
$GPGSV,3,1,12,01,21,146,22,02,07,313,19,03,55,085,17,06,41,302,25*78
$GPGSV,3,2,12,09,44,212,22,11,03,157,24,12,01,323,07,17,29,239,14*72
$GPGSV,3,3,12,23,76,145,17,25,04,358,07,31,18,038,18,32,18,087,20*7A
!AIVDM,1,1,,A,133mt>PP00PD>JRMU<;QVOvd2<3H,0*32
$GPGLL,5143.35107,N,00418.68439,E,160222.00,A,A*62
!AIVDM,1,1,,B,13`fLNpP0oPD9BHMV2ll>?vd2608,0*4D
!AIVDM,1,1,,A,13aGushP00PDERTMU9uC4?vf20S<,0*0A
$GPRMC,160223.00,A,5143.35159,N,00418.68231,E,5.630,284.71,241015,,,A*6A
!AIVDO,1,1,,,B39qLF00>04siSWIR:fiwwq5kP06,0*25
$GPVTG,284.71,T,,M,5.630,N,10.427,K,A*05
!AIVDM,1,1,,B,13aDr90P000D?;4MU?>s@OvfR608,0*74
!AIVDM,1,1,,A,13aDs1@P00PDT<@MdhMlgOvVR<=m,0*39
$GPGGA,160223.00,5143.35159,N,00418.68231,E,1,08,0.98,-4.2,M,46.0,M,,*73
$GPGSA,M,3,23,17,03,06,31,09,32,01,,,,,1.88,0.98,1.61*01
!AIVDM,1,1,,A,13aPO2PP00PD;mdMTuj20?vf2608,0*69
$GPGSV,3,1,12,01,21,146,24,02,07,313,18,03,55,085,17,06,41,302,25*7F
$GPGSV,3,2,12,09,44,212,22,11,03,157,25,12,01,323,07,17,29,239,14*73
!AIVDM,1,1,,B,13aEPShP00PD0f>MSeJ00?vf2<6I,0*2B
$GPGSV,3,3,12,23,76,145,17,25,04,358,07,31,18,038,17,32,18,087,21*74
$GPGLL,5143.35159,N,00418.68231,E,160223.00,A,A*66
!AIVDM,1,1,,B,13b3;v0P00PC<36M`1L00?vf28=m,0*54
!AIVDM,1,1,,A,13aC26hP1QPDPSHMU5kSkgvfR608,0*60
!AIVDM,1,1,,A,13aGEg0P0PPC?qJMScDu3wvh2D3s,0*17
!AIVDM,1,1,,B,18I1kv000GPCvV0MdTk3c34f08>5,0*19
$GPRMC,160224.00,A,5143.35183,N,00418.68011,E,5.647,284.19,241015,,,A*64
$GPVTG,284.19,T,,M,5.647,N,10.457,K,A*0C
!AIVDO,1,1,,,B39qLF00>04siHWIR:riWwqUkP06,0*6A
$GPGGA,160224.00,5143.35183,N,00418.68011,E,1,08,0.98,-3.4,M,46.0,M,,*72
$GPGSA,M,3,23,17,03,06,31,09,32,01,,,,,1.88,0.98,1.61*01
$GPGSV,3,1,12,01,21,146,24,02,07,313,18,03,55,085,18,06,41,302,25*70
$GPGSV,3,2,12,09,44,212,24,11,03,157,22,12,01,323,07,17,29,239,15*73
$GPGSV,3,3,12,23,76,145,28,25,04,358,07,31,18,038,17,32,18,087,22*7B
!AIVDM,1,1,,A,139eoBPP1MPCWvlMSLARN?vh2<35,0*51
!AIVDM,1,1,,B,33aEPk@P00PD8IpMTd4P0?vh2?tk,0*25
$GPGLL,5143.35183,N,00418.68011,E,160224.00,A,A*66
!AIVDM,1,1,,B,H3aN1aP55D58UE>1<0000000000,2*19
!AIVDM,1,1,,B,13aEOuPP1NPChiJMSb`31?vjR<6F,0*3D
!AIVDM,1,1,,A,13aDpn0P010D>wFMU>@W`wvfP8>e,0*00
$GPRMC,160225.00,A,5143.35209,N,00418.67813,E,5.283,283.10,241015,,,A*63
!AIVDM,1,1,,A,33`t@r5P010E9>TM`l4G@Ovf0000,0*6F
!AIVDM,1,1,,A,13aC2QPP1d0CiinMSe:S4?vfPD3w,0*74
!AIVDO,1,1,,,B39qLF00=04si>WIR;2hwwr5kP06,0*1C
$GPVTG,283.10,T,,M,5.283,N,9.784,K,A*3B
!AIVDM,1,1,,B,139e1l0P1LPClvBMSlDIp?vhR<3w,0*74
$GPGGA,160225.00,5143.35209,N,00418.67813,E,1,08,0.98,-3.0,M,46.0,M,,*73
!AIVDM,1,1,,B,14Qvm`000H0CwP:MdTal<8dl0DE2,0*63
$GPGSA,M,3,23,17,03,06,31,09,32,01,,,,,1.88,0.98,1.60*00
$GPGSV,3,1,12,01,21,146,21,02,07,313,16,03,55,085,17,06,41,302,27*76
!AIVDM,1,1,,A,139beTPP0D0D?10MU<ta@OvhP0Rq,0*13
$GPGSV,3,2,12,09,44,212,23,11,03,157,25,12,01,323,07,17,29,239,28*7D
!AIVDM,1,1,,B,13aEOS?P00PD?0FMU>7o7OvhR0Ra,0*64
$GPGSV,3,3,12,23,76,145,28,25,04,358,07,31,18,038,18,32,18,087,21*77
!AIVDM,1,1,,A,13aFg>hP1LPD>B`Mb2`CVwvj2<4O,0*61
$GPGLL,5143.35209,N,00418.67813,E,160225.00,A,A*63
!AIVDM,1,1,,B,13aDr;@P00PC;gNMWwbP0?vhR0RA,0*65
!AIVDM,1,1,,A,13aGtN@P?w<tSF0l4Q@>4?wv0d1m,0*78
!AIVDM,1,1,,B,13aEP6PP00PD>crMU<e95?vJ2D32,0*67
!AIVDM,1,1,,A,139nEc0P00PC8<jMSosCfOvj2<5Q,0*56
$GPRMC,160226.00,A,5143.35303,N,00418.67590,E,5.750,289.43,241015,,,A*6A
!AIVDM,1,1,,B,13aENk0P00PD7m>MTa`C4?vj20Sa,0*4A
$GPVTG,289.43,T,,M,5.750,N,10.649,K,A*04
!AIVDO,1,1,,,B39qLF00>@4si3WIR;blswrUkP06,0*52
$GPGGA,160226.00,5143.35303,N,00418.67590,E,1,08,0.98,-3.3,M,46.0,M,,*7E
$GPGSA,M,3,23,17,03,06,31,09,32,01,,,,,1.88,0.98,1.60*00
$GPGSV,3,1,12,01,21,146,19,02,07,313,17,03,55,085,17,06,41,302,26*7D
!AIVDM,1,1,,B,13aIin?P00PDDrTMU6mh0?vl2<7S,0*45
!AIVDM,1,1,,A,13aDrb@P11PDOltMU:arj?vl2608,0*30
$GPGSV,3,2,12,09,44,212,23,11,03,157,25,12,01,323,07,17,29,239,29*7C
!AIVDM,1,1,,A,139jMt001FPC`1bMSJBjGArl2<7<,0*78
$GPGSV,3,3,12,23,76,145,25,25,04,358,07,31,18,038,18,32,18,087,25*7E
$GPGLL,5143.35303,N,00418.67590,E,160226.00,A,A*6D
!AIVDM,1,1,,A,?39beTPrFLgPD00,2*19
!AIVDM,1,1,,B,83aDr3@j2d<dttddN23@t?aE7Q00,0*68
!AIVDM,1,1,,B,13bRH400000D?sRMd0CeV3Hn0608,0*73
$GPRMC,160227.00,A,5143.35346,N,00418.67361,E,5.729,290.38,241015,,,A*68
!AIVDM,1,1,,A,13aGFDhP00PD<LRMTv300?vn2@?p,0*48
$GPVTG,290.38,T,,M,5.729,N,10.611,K,A*03
!AIVDO,1,1,,,B39qLF00>@4shp7IR;rmOws5kP06,0*3C
!AIVDM,1,1,,B,139eKr0P00PD?GHMU8a>4?vnR8?t,0*4B
$GPGGA,160227.00,5143.35346,N,00418.67361,E,1,08,0.98,-3.3,M,46.0,M,,*76
$GPGSA,M,3,23,17,03,06,31,09,32,01,,,,,1.88,0.98,1.60*00
!AIVDM,1,1,,B,13aGD:PP00PD?V@MU:4@0?vn2<7V,0*6C
$GPGSV,3,1,12,01,21,146,18,02,07,313,17,03,55,085,19,06,41,302,27*73
$GPGSV,3,2,12,09,44,212,21,11,03,157,25,12,01,323,13,17,29,239,27*75
$GPGSV,3,3,12,23,76,145,23,25,04,358,07,31,18,038,14,32,18,087,28*79
$GPGLL,5143.35346,N,00418.67361,E,160227.00,A,A*65
!AIVDM,1,1,,A,13aEOuPP1NPChmBMSbdC1OvnR608,0*40
$GPRMC,160228.00,A,5143.35430,N,00418.67146,E,5.768,294.38,241015,,,A*67
$GPVTG,294.38,T,,M,5.768,N,10.682,K,A*08
!AIVDO,1,1,,,B39qLF00>@4she7IR<NowwsUkP06,0*48
$GPGGA,160228.00,5143.35430,N,00418.67146,E,1,08,0.98,-3.2,M,46.0,M,,*79
$GPGSA,M,3,23,17,03,06,31,09,32,01,,,,,1.88,0.98,1.60*00
!AIVDM,1,1,,A,13aDod1P1CPChHVMSgKr=?vdR8@T,0*52
$GPGSV,3,1,12,01,21,146,19,02,07,313,20,03,55,085,22,06,41,302,26*7F
!AIVDM,1,1,,A,13aDp`?P1DPD5hJMTk60=?vrRL7>,0*6D
$GPGSV,3,2,12,09,44,212,19,11,03,157,25,12,01,323,13,17,29,239,24*7D
!AIVDM,1,1,,B,33aC1uhP0r0D4;DMTDj1@Ovn02wk,0*09
$GPGSV,3,3,12,23,76,145,21,25,04,358,07,31,18,038,13,32,18,087,29*7D
!AIVDM,1,1,,B,13aDq3PP0gPD4?>MSKAUa?vp28@e,0*00
$GPGLL,5143.35430,N,00418.67146,E,160228.00,A,A*6B
!AIVDM,1,1,,B,133ljIPP00PD84tMTj=0sOvpR0Ro,0*2C
!AIVDM,1,1,,A,133s1>PP18PCg=fMcHsbV?vp20SP,0*54
!AIVDM,1,1,,B,13aL>MhP00PBuLHMSmP00?vp2608,0*34
!AIVDM,1,1,,B,13aEO8hP00PDBe0MRGkh0?vp2<6U,0*70
!AIVDM,1,1,,B,13aBNJ0P00PCV<tMV3gac?vp20Rf,0*2F
$GPRMC,160229.00,A,5143.35482,N,00418.66906,E,5.819,293.80,241015,,,A*6F
$GPVTG,293.80,T,,M,5.819,N,10.776,K,A*0F
!AIVDO,1,1,,,B39qLF00>P4shQ7IR<jocwt5kP06,0*3B
$GPGGA,160229.00,5143.35482,N,00418.66906,E,1,08,0.98,-3.6,M,46.0,M,,*78
$GPGSA,M,3,23,17,03,06,31,09,32,01,,,,,1.88,0.98,1.60*00
$GPGSV,3,1,12,01,21,146,20,02,07,313,19,03,55,085,23,06,41,302,24*7C
!AIVDM,1,1,,A,13aDB9@P0h<tSF0l4Q@4L?wp0D7k,0*7E
$GPGSV,3,2,12,09,44,212,22,11,03,157,24,12,01,323,13,17,29,239,23*73
!AIVDM,1,1,,A,14`VS=00000C=s`MeTj<v80n0<<P,0*7C
$GPGSV,3,3,12,23,76,145,24,25,04,358,07,31,18,038,14,32,18,087,29*7F
$GPGLL,5143.35482,N,00418.66906,E,160229.00,A,A*6E
!AIVDM,1,1,,A,13aIiI0P00PCo64MaTr@0?vr28AF,0*7E
!AIVDM,2,1,3,A,53c;dV02Ad6M09Ab220AE@<R10uLE:222222220l0pD556Ud07Tm1C31CQ0C,0*21
!AIVDM,2,2,3,A,H8888888880,2*57
!AIVDM,1,1,,A,13aDCoP000PChqvMWB9h046t2@AU,0*18
!AIVDM,1,1,,A,13aGFHhP010D>E2MU;97iOvp0HAV,0*6A
!AIVDM,1,1,,A,13aJIs?P00PD@1VMU;STk?vt28A`,0*30
$GPRMC,160230.00,A,5143.35512,N,00418.66653,E,5.781,290.19,241015,,,A*6D
!AIVDM,1,1,,A,14`Vlj001W0D050Mdak:`8Hl0@Ab,0*02
$GPVTG,290.19,T,,M,5.781,N,10.706,K,A*05
!AIVDO,1,1,,,B39qLF00>@4shDWIR<vmGwtUkP06,0*04
$GPGGA,160230.00,5143.35512,N,00418.66653,E,1,08,0.98,-3.7,M,46.0,M,,*76
$GPGSA,M,3,23,17,03,06,31,09,32,01,,,,,1.88,0.98,1.60*00
$GPGSV,3,1,12,01,21,146,20,02,07,313,19,03,55,085,24,06,41,302,21*7E
$GPGSV,3,2,12,09,44,212,25,11,03,157,23,12,01,323,13,17,29,239,23*73
!AIVDM,1,1,,B,13aGEDPP1RPC`OfMSPp9GOvtR608,0*58
!AIVDM,1,1,,A,13aEQ5@P01PD;cBMTwEtJgvv2<7E,0*75
$GPGSV,3,3,12,23,76,145,25,25,04,358,07,31,18,038,16,32,18,087,20*75
!AIVDM,1,1,,A,13aC5K@P00PD?MNMU9Bh0?vu2<0J,0*33
$GPGLL,5143.35512,N,00418.66653,E,160230.00,A,A*61
!AIVDM,1,1,,B,139O8tPP1Q0D==`MbSIs6Ovr08B6,0*2E
!AIVDM,1,1,,B,133mt>PP00PD>JfMU<;iVOvt20Sm,0*64
$GPRMC,160231.00,A,5143.35572,N,00418.66393,E,5.857,289.73,241015,,,A*63
$GPVTG,289.73,T,,M,5.857,N,10.848,K,A*00
$GPGGA,160231.00,5143.35572,N,00418.66393,E,1,08,0.98,-3.9,M,46.0,M,,*76
!AIVDO,1,1,,,B39qLF00>P4sh7WIR=Fm7wu5kP06,0*47
$GPGSA,M,3,23,17,03,06,31,09,32,01,,,,,1.88,0.98,1.60*00
!AIVDM,1,1,,B,139gq8PP1WPCJOpMRsr9QOvt2608,0*07
!AIVDM,1,1,,B,13aEOuPP1NPChrNMSbj31wvvR@BF,0*74
$GPGSV,3,1,12,01,21,146,20,02,07,313,18,03,55,085,25,06,41,302,20*7F
!AIVDM,1,1,,A,133oTQPP1JPCLrnMRvO2V?vb2@BI,0*55
$GPGSV,3,2,12,09,44,212,25,11,03,157,26,12,01,323,14,17,29,239,24*76
$GPGSV,3,3,12,23,76,145,25,25,04,358,07,31,18,038,19,32,18,087,22*78
$GPGLL,5143.35572,N,00418.66393,E,160231.00,A,A*6F
!AIVDM,1,1,,B,13aDqR@P00PD8TtMTd`ksOvv2@BO,0*08
!AIVDM,1,1,,B,34hCMC5000PDnw0MdttsWRPt0Df:,0*6C
!AIVDM,1,1,,B,13aFf90P0bPD@:8MU@mqkgvv00SE,0*65
!AIVDM,1,1,,B,13aO?p0P0>PD7g@MTbgBAgvv28B`,0*7C
!AIVDM,1,1,,A,13aEQ3PP02PC5pvMSs2e5gw02@Bi,0*36
$GPRMC,160232.00,A,5143.35667,N,00418.66127,E,6.286,293.03,241015,,,A*63
$GPVTG,293.03,T,,M,6.286,N,11.641,K,A*0F
!AIVDM,1,1,,B,13aGushP00PDERtMU9vkA?w02@Bn,0*13
$GPGGA,160232.00,5143.35667,N,00418.66127,E,1,08,0.98,-3.9,M,46.0,M,,*7F
!AIVDO,1,1,,,B39qLF00?P4sgr7IR=ro;wuUkP06,0*36
$GPGSA,M,3,23,17,03,06,31,09,32,01,,,,,1.88,0.98,1.60*00
$GPGSV,3,1,12,01,21,146,18,02,07,313,17,03,55,085,25,06,41,302,21*7A
$GPGSV,3,2,12,09,44,212,24,11,03,157,25,12,01,323,14,17,29,239,25*75
!AIVDM,1,1,,A,13aGF9PP0t0CkW0MSjwr8ww008C0,0*44
$GPGSV,3,3,12,23,76,145,25,25,04,358,07,31,18,038,19,32,18,087,22*78
$GPGLL,5143.35667,N,00418.66127,E,160232.00,A,A*66
!AIVDM,1,1,,B,133v`NPP1TPCnC6MSi;S0Ow020Sb,0*35
$GPRMC,160233.00,A,5143.35720,N,00418.65889,E,5.922,293.41,241015,,,A*6E
$GPVTG,293.41,T,,M,5.922,N,10.968,K,A*0A
$GPGGA,160233.00,5143.35720,N,00418.65889,E,1,08,0.98,-3.9,M,46.0,M,,*72
!AIVDO,1,1,,,B39qLF00>h4sgf7IR>BoKwP5kP06,0*1D
$GPGSA,M,3,23,17,03,06,31,09,32,01,,,,,1.88,0.98,1.60*00
!AIVDM,1,1,,A,13`fLNpP0qPD9JbMV2Wl>gw22HCP,0*23
$GPGSV,3,1,12,01,21,146,20,02,07,313,18,03,55,086,23,06,41,302,20*7A
!AIVDM,1,1,,A,33aEPShP00PD0f0MSeKP0?w22Alk,0*15
$GPGSV,3,2,12,09,44,212,21,11,03,157,23,12,01,323,14,17,29,239,25*76
!AIVDM,1,1,,B,13aGEg0P0PPC?obMScWM7?w42608,0*22
$GPGSV,3,3,12,23,76,145,26,25,04,358,14,31,18,038,18,32,18,087,22*78
$GPGLL,5143.35720,N,00418.65889,E,160233.00,A,A*6B
!AIVDM,1,1,,A,13aEOuPP1NPChu4MSblk1ww4R8Ct,0*5C
!AIVDM,1,1,,B,13aC26hP1QPDPhdMU5cCjgw2R0R`,0*04
$GPRMC,160234.00,A,5143.35772,N,00418.65663,E,5.591,293.33,241015,,,A*65
$GPVTG,293.33,T,,M,5.591,N,10.355,K,A*0F
!AIVDM,1,1,,A,13aEPk@P00PD8J6MTd5@0?w428D0,0*41
$GPGGA,160234.00,5143.35772,N,00418.65663,E,1,08,0.98,-3.9,M,46.0,M,,*78
$GPGSA,M,3,23,17,03,06,31,09,32,01,,,,,1.88,0.98,1.60*00
!AIVDO,1,1,,,B39qLF00=h4sgS7IR>VoGwQ5kP06,0*32
$GPGSV,3,1,12,01,21,146,29,02,07,313,19,03,55,086,21,06,41,302,21*71
$GPGSV,3,2,12,09,44,212,22,11,03,157,24,12,01,323,15,17,29,239,23*75
$GPGSV,3,3,12,23,76,145,27,25,04,358,14,31,18,038,17,32,18,087,20*74
$GPGLL,5143.35772,N,00418.65663,E,160234.00,A,A*61
!AIVDM,1,1,,B,83aEPuPj2d<dtML=>1T0c?`53h00,0*6A
!AIVDM,1,1,,A,13aDr90P000D?;2MU??;COw6RD9n,0*47
!AIVDM,1,1,,B,339beTPP0@0D>w6MU<n9=ww2P2r3,0*6B
$GPRMC,160235.00,A,5143.35800,N,00418.65432,E,5.524,290.60,241015,,,A*63
$GPVTG,290.60,T,,M,5.524,N,10.231,K,A*07
!AIVDM,1,1,,B,13aC2QPP1d0Cj0VMSeHk5ww2P@DW,0*10
$GPGGA,160235.00,5143.35800,N,00418.65432,E,1,08,0.98,-4.0,M,46.0,M,,*7B
!AIVDM,1,1,,B,139eoBPP1MPC`:FMSLfROOw428Dc,0*2D
!AIVDO,1,1,,,B39qLF00=h4sgGWIR>jmcwQUkP06,0*3C
$GPGSA,M,3,23,17,03,06,31,09,32,01,,,,,1.88,0.98,1.60*00
$GPGSV,3,1,12,01,21,146,28,02,07,313,19,03,55,086,19,06,41,302,20*7A
!AIVDM,1,1,,A,13aEOS?P00PD?0FMU>7o7Ow4R8Dh,0*2D
!AIVDM,1,1,,B,13aDpn0P010D>wFMU>@WM?w4P8Dh,0*42
$GPGSV,3,2,12,09,44,212,23,11,03,157,23,12,01,323,15,17,29,239,22*72
$GPGSV,3,3,12,23,76,145,29,25,04,358,14,31,18,038,17,32,18,087,19*70
$GPGLL,5143.35800,N,00418.65432,E,160235.00,A,A*6C
!AIVDM,1,1,,A,13aDr3@P00PD?svMU;7RCOw6R<3=,0*15
!AIVDM,1,1,,A,139e1l0P1LPClhfMSkvIoww6R608,0*36
!AIVDM,1,1,,A,13aENk0P00PD7m>MTa`C4?w628E7,0*5C
$GPRMC,160236.00,A,5143.35826,N,00418.65165,E,5.652,284.66,241015,,,A*62
!AIVDM,1,1,,A,13aEP6PP00PD>d6MU<eq5?vf2608,0*38
$GPVTG,284.66,T,,M,5.652,N,10.467,K,A*03
$GPGGA,160236.00,5143.35826,N,00418.65165,E,1,08,0.98,-3.9,M,46.0,M,,*75
!AIVDM,1,1,,B,139nEc0P00PC8<jMSosCfOw82D5T,0*7B
$GPGSA,M,3,23,17,03,06,31,09,32,01,,,,,1.88,0.98,1.60*00
!AIVDM,1,1,,B,139f0`?P02PDQK@MTu6:Ngw:2@EA,0*79
!AIVDO,1,1,,,B39qLF00>04sg:7IR>riswR5kP06,0*15
$GPGSV,3,1,12,01,21,146,27,02,07,313,19,03,55,086,19,06,41,302,19*7F
$GPGSV,3,2,12,09,44,212,23,11,03,157,24,12,01,323,15,17,29,239,20*77
$GPGSV,3,3,12,23,76,145,29,25,04,358,14,31,18,038,15,32,18,087,18*73
!AIVDM,1,1,,B,13aGFDhP00PD<LTMTv1h0?w82608,0*71
$GPGLL,5143.35826,N,00418.65165,E,160236.00,A,A*6C
!AIVDM,1,1,,B,13aDrb@P11PDOchMU:frkgw820SH,0*3E
!AIVDM,1,1,,A,13bRH400000D?sNMd0Cur3I:00S6,0*66
!AIVDM,1,1,,B,339jMt001FPC`<2MSJhBGQs:2BDC,0*13
!AIVDM,1,1,,A,13aIin?P00PDDrfMU6m@0?w:2HEe,0*3B
$GPRMC,160237.00,A,5143.35797,N,00418.64897,E,5.665,270.92,241015,,,A*67
$GPVTG,270.92,T,,M,5.665,N,10.491,K,A*0E
$GPGGA,160237.00,5143.35797,N,00418.64897,E,1,08,0.98,-2.7,M,46.0,M,,*7B
$GPGSA,M,3,23,17,03,06,31,09,32,01,,,,,1.88,0.98,1.60*00
!AIVDO,1,1,,,B39qLF00>04sftWIR>faGwRUkP06,0*72
$GPGSV,3,1,12,01,21,146,28,02,07,313,19,03,55,086,19,06,41,302,20*7A
!AIVDM,1,1,,B,13aEOuPP1NPCi2@MSbrk1ww:R@Eq,0*06
$GPGSV,3,2,12,09,44,212,24,11,03,157,24,12,01,323,15,17,29,239,19*7A
!AIVDM,1,1,,B,13aDp2hP000D9gVMThr5`gwb2608,0*2C
$GPGSV,3,3,12,23,76,145,29,25,04,358,14,31,18,038,13,32,18,087,17*7A
$GPGLL,5143.35797,N,00418.64897,E,160237.00,A,A*6D
!AIVDM,1,1,,B,83aDqR@j2ddtdett@1T0e?bP7lP0,0*03
!AIVDM,1,1,,A,?39beTPrFLgPD00,2*19
!AIVDM,1,1,,B,13aI;G?P01PCW@BMa90P`Ow:20SV,0*4B
$GPRMC,160238.00,A,5143.35687,N,00418.64725,E,5.473,251.38,241015,,,A*68
$GPVTG,251.38,T,,M,5.473,N,10.136,K,A*00
!AIVDM,1,1,,B,H3aN1aTUC=D4E1?@8mloj01H2220,0*52
$GPGGA,160238.00,5143.35687,N,00418.64725,E,1,08,0.98,-3.0,M,46.0,M,,*74
$GPGSA,M,3,23,17,03,06,31,09,32,01,,,,,1.88,0.98,1.60*00
!AIVDO,1,1,,,B39qLF00=P4sfl7IR>2M7wS5kP06,0*00
$GPGSV,3,1,12,01,21,146,25,02,07,313,19,03,55,086,19,06,41,302,18*7C
$GPGSV,3,2,12,09,44,212,23,11,03,157,23,12,01,323,15,17,29,239,19*7A
$GPGSV,3,3,12,23,76,145,29,25,04,358,14,31,18,038,14,32,18,087,16*7C
$GPGLL,5143.35687,N,00418.64725,E,160238.00,A,A*64
!AIVDM,1,1,,B,13aDp`?P1EPD5i`MTl6P>Ow>R<7?,0*6C
!AIVDM,1,1,,B,13aJIs?P00PD@1PMU;RmQOw<2D7P,0*34
!AIVDM,1,1,,A,13aC1uhP0r0D4?hMTEDQAgw:0<3w,0*45
!AIVDM,1,1,,A,13aBNJ0P00PCV<pMV3gr;ww>2HFo,0*01
$GPRMC,160239.00,A,5143.35659,N,00418.64525,E,5.195,243.50,241015,,,A*68
$GPVTG,243.50,T,,M,5.195,N,9.620,K,A*38
$GPGGA,160239.00,5143.35659,N,00418.64525,E,1,08,0.98,-2.0,M,46.0,M,,*75
$GPGSA,M,3,23,17,03,06,31,09,32,01,,,,,1.88,0.98,1.60*00
!AIVDO,1,1,,,B39qLF00<h4sfb7IR=nH?wSUkP06,0*05
$GPGSV,3,1,12,01,21,146,26,02,07,313,18,03,55,086,19,06,41,302,16*70
!AIVDM,1,1,,A,B3aNcM000054nm7IC;F2kwk5kP06,0*59
!AIVDM,1,1,,B,33aEQ5@P00PD;cFMTwFLlOw@25AS,0*1A
$GPGSV,3,2,12,09,44,212,21,11,03,157,23,12,01,323,11,17,29,239,18*7D
!AIVDM,1,1,,B,13aC5K@P00PD?MNMU9BP0?w?2608,0*3B
$GPGSV,3,3,12,23,76,145,29,25,04,358,07,31,18,038,15,32,18,087,14*7D
$GPGLL,5143.35659,N,00418.64525,E,160239.00,A,A*64
!AIVDM,1,1,,B,13aDod1P1CPCh;tMSgB:>Ow2R608,0*77
!AIVDM,1,1,,B,13aDB9@P0h<tSF0l4Q@4Igwp0<7k,0*58
!AIVDM,1,1,,A,13aEOuPP1NPCi4nMSbuS1gw>R608,0*4C
!AIVDM,1,1,,A,33aDqIgP000D15RMSclrJgw>R1fA,0*6D
!AIVDM,1,1,,B,13aIiI0P00PCo6:MaTpP0?w>2D7t,0*14
!AIVDM,1,1,,A,402E3MQuvd@2WPCgs2Md@WG008GN,0*45
$GPRMC,160240.00,A,5143.35719,N,00418.64305,E,4.488,247.49,241015,,,A*63
!AIVDM,1,1,,B,13aDCoP000PChr0MWB9h047@2D6r,0*3F
$GPVTG,247.49,T,,M,4.488,N,8.311,K,A*3A
$GPGGA,160240.00,5143.35719,N,00418.64305,E,1,08,0.98,-2.1,M,46.0,M,,*7B
$GPGSA,M,3,23,17,03,06,31,09,32,01,,,,,1.88,0.98,1.60*00
!AIVDO,1,1,,,B39qLF00;04sfO7IR>>JcwT5kP06,0*1D
$GPGSV,3,1,12,01,21,146,26,02,07,313,18,03,55,086,19,06,41,302,14*72
$GPGSV,3,2,12,09,44,212,22,11,03,157,23,12,01,323,11,17,29,239,19*7F
$GPGSV,3,3,12,23,76,145,28,25,04,358,07,31,18,038,17,32,18,087,15*7F
$GPGLL,5143.35719,N,00418.64305,E,160240.00,A,A*6B
!AIVDM,1,1,,B,14`Vlj001`0CwpPMdak:U`E808Go,0*14
!AIVDM,1,1,,B,13aGCJPP00PD>A6MU;GSAgw>RHGq,0*21
!AIVDM,1,1,,B,133oTQPP1JPCM5@MRvnBUgvt20RU,0*5E
$GPRMC,160241.00,A,5143.35762,N,00418.64020,E,5.352,261.10,241015,,,A*63
$GPVTG,261.10,T,,M,5.352,N,9.913,K,A*3A
!AIVDM,1,1,,A,13aDqR@P00PD8TtMTd`ksOw@20SF,0*54
$GPGGA,160241.00,5143.35762,N,00418.64020,E,1,08,0.98,-2.0,M,46.0,M,,*73
!AIVDM,1,1,,A,33aO?p0P0>PD7hlMTbkjD?w@21:A,0*40
$GPGSA,M,3,23,17,03,06,31,09,32,01,,,,,1.88,0.98,1.60*00
$GPGSV,3,1,12,01,21,146,25,02,07,313,17,03,55,086,20,06,41,302,17*77
!AIVDO,1,1,,,B39qLF00=@4sfA7IR>RS?wTUkP06,0*2C
$GPGSV,3,2,12,09,44,212,22,11,02,157,23,12,01,323,11,17,29,239,20*74
$GPGSV,3,3,12,23,76,145,28,25,04,358,07,31,18,038,16,32,18,087,17*7C
$GPGLL,5143.35762,N,00418.64020,E,160241.00,A,A*62
!AIVDM,1,1,,A,339gq8PP1WPCJANMRsG9QwwB22o3,0*5C
!AIVDM,1,1,,A,133mt>PP00PD>JfMU<=QVOwB20SN,0*4D
!AIVDM,1,1,,B,13aFgbwP000CtU8Md:EtngwBPV08,0*58
$GPRMC,160242.00,A,5143.35762,N,00418.63799,E,5.277,266.89,241015,,,A*63
!AIVDM,1,1,,B,13aGF9PP0t0CkNdMSjor9gwD08Hc,0*2F
$GPVTG,266.89,T,,M,5.277,N,9.773,K,A*33
$GPGGA,160242.00,5143.35762,N,00418.63799,E,1,08,0.98,-1.6,M,46.0,M,,*77
$GPGSA,M,3,23,17,03,06,31,09,32,01,,,,,1.88,0.98,1.60*00
!AIVDM,1,1,,B,13aEQ3PP02PC5q<MSs2v0OwF2608,0*63
$GPGSV,3,1,12,01,21,146,27,02,07,313,15,03,55,086,20,06,41,302,20*73
!AIVDO,1,1,,,B39qLF00=04sf5WIR>RVkwU5kP06,0*78
!AIVDM,1,1,,B,B3aPP`P0084wgB7Ic51j;wm5oP06,0*05
$GPGSV,3,2,12,09,44,212,24,11,02,157,24,12,01,322,11,17,29,239,20*74
!AIVDM,1,1,,B,13`fLNpP0sPD9QPMV2N4BwwD28Hq,0*0A
$GPGSV,3,3,12,23,76,145,28,25,04,358,07,31,18,038,16,32,18,087,18*73
$GPGLL,5143.35762,N,00418.63799,E,160242.00,A,A*63
!AIVDM,1,1,,A,13WkrrPP1MPCkD2MSiBr7OwD2@I2,0*6F
!AIVDM,1,1,,B,13aNaT@009PD;oHMTwrQkAOD08I9,0*58
!AIVDM,1,1,,B,13b3;v0P00PC<2`M`1LP0?wD2608,0*16
!AIVDM,1,1,,A,13aGF4P000PD;:`MTu5P01QF28I=,0*04
$GPRMC,160243.00,A,5143.35748,N,00418.63492,E,5.885,266.86,241015,,,A*6A
!AIVDM,1,1,,B,13aEOuPP1NPCi8hMSc230gwFR608,0*1A
$GPVTG,266.86,T,,M,5.885,N,10.899,K,A*08
!AIVDM,2,1,4,A,533ljIT00000uC??O40h4Lt0000000000000001?7P753tFl005S2DljCQiC,0*0E
!AIVDM,2,2,4,A,P0000000000,2*40
$GPGGA,160243.00,5143.35748,N,00418.63492,E,1,08,0.98,-1.3,M,46.0,M,,*73
!AIVDM,1,1,,A,133v`NPP1TPCnPvMSiJS0wwF28IE,0*6F
$GPGSA,M,3,23,17,03,06,31,09,32,01,,,,,1.88,0.98,1.60*00
$GPGSV,3,1,12,01,21,146,27,02,07,313,14,03,55,086,21,06,41,302,20*73
!AIVDO,1,1,,,B39qLF00>P4senWIR>JVkwUUkP06,0*3B
$GPGSV,3,2,12,09,44,212,25,11,02,157,23,12,01,322,11,17,29,239,17*76
!AIVDM,1,1,,A,13aPO2PP00PD;m`MTujB0?wF2<39,0*34
$GPGSV,3,3,12,23,76,145,28,25,04,358,07,31,18,038,13,32,18,087,18*76
$GPGLL,5143.35748,N,00418.63492,E,160243.00,A,A*62
!AIVDM,1,1,,A,13aC26hP1QPDPvJMU5U3iwwFR<3w,0*6C
$GPRMC,160244.00,A,5143.35737,N,00418.63251,E,5.481,264.19,241015,,,A*60
$GPVTG,264.19,T,,M,5.481,N,10.152,K,A*0A
!AIVDM,1,1,,B,13aEP6PP00PD>d0MU<e8jgvv2<32,0*60
$GPGGA,160244.00,5143.35737,N,00418.63251,E,1,08,0.98,-0.4,M,46.0,M,,*73
$GPGSA,M,3,23,17,03,06,31,09,32,01,,,,,1.88,0.98,1.60*00
!AIVDM,1,1,,A,13aGEg0P0PPC?mHMScve9?wJ2HIv,0*39
$GPGSV,3,1,12,01,21,146,27,02,07,313,13,03,55,086,20,06,41,302,22*77
!AIVDO,1,1,,,B39qLF00=P4sebWIR>FU7wV5kP06,0*04
$GPGSV,3,2,12,09,44,212,25,11,02,157,24,12,01,322,11,17,29,239,14*72
!AIVDM,1,1,,A,13aC2QPP1c0Cj?HMSeVk6gwFP@J2,0*17
$GPGSV,3,3,12,23,76,145,28,25,04,358,09,31,18,038,12,32,18,087,17*76
$GPGLL,5143.35737,N,00418.63251,E,160244.00,A,A*64
!AIVDM,1,1,,B,133oAiP01F0DL<vMU>A;58oJ0<8u,0*03
!AIVDM,1,1,,B,13aDr90P000D?;2MU??cHOwJR608,0*46
!AIVDM,1,1,,A,139eoBPP1MPC`F0MSM<2MwwH2<36,0*7F
$GPRMC,160245.00,A,5143.35769,N,00418.62999,E,5.498,267.66,241015,,,A*67
!AIVDM,1,1,,A,13aBNJ@0000C4dfMT5fe;pKF0D1R,0*48
!AIVDM,1,1,,B,13b<Er?0000D>2bMdIHMbWCJ08JL,0*0C
$GPVTG,267.66,T,,M,5.498,N,10.183,K,A*05
$GPGGA,160245.00,5143.35769,N,00418.62999,E,1,08,0.98,-0.6,M,46.0,M,,*75
$GPGSA,M,3,23,17,03,06,31,09,32,01,,,,,1.88,0.98,1.60*00
$GPGSV,3,1,12,01,21,146,27,02,07,313,13,03,55,086,18,06,41,302,21*7F
!AIVDO,1,1,,,B39qLF00=P4seMWIR>RWCwVUkP06,0*29
$GPGSV,3,2,12,09,44,212,26,11,02,157,25,12,01,322,10,17,29,239,14*71
!AIVDM,1,1,,B,13aIin?P00PDDs8MU6kP0?wJ2<7S,0*31
$GPGSV,3,3,12,23,76,145,29,25,04,358,15,31,18,038,15,32,18,087,18*72
!AIVDM,1,1,,A,13aDpn0P010D>wDMU>@oUwwHP@Jc,0*2A
$GPGLL,5143.35769,N,00418.62999,E,160245.00,A,A*60
!AIVDM,1,1,,B,13aDCo@P00PD8>tMTccU;gwHRHJp,0*57
!AIVDM,1,1,,A,139nEc0P00PC8<jMSosCfOwJ2HJq,0*5C
!AIVDM,1,1,,B,139e1l0P1MPClTNMSkbaogwJR608,0*70
$GPRMC,160246.00,A,5143.35823,N,00418.62771,E,5.348,274.86,241015,,,A*6B
$GPVTG,274.86,T,,M,5.348,N,9.904,K,A*3C
$GPGGA,160246.00,5143.35823,N,00418.62771,E,1,08,0.98,-1.0,M,46.0,M,,*78
$GPGSA,M,3,23,17,03,06,31,09,32,01,,,,,1.88,0.98,1.60*00
!AIVDM,1,1,,A,13aEOuPP1NPCi=tMSc8S0OwLR608,0*48
$GPGSV,3,1,12,01,21,146,26,02,07,313,10,03,55,086,18,06,41,302,20*7C
$GPGSV,3,2,12,09,44,212,28,11,02,157,24,12,01,322,10,17,29,239,14*7E
!AIVDO,1,1,,,B39qLF00=@4seBWIR>rckwW5kP06,0*6B
$GPGSV,3,3,12,23,76,145,29,25,04,358,19,31,18,038,16,32,18,087,19*7C
$GPGLL,5143.35823,N,00418.62771,E,160246.00,A,A*6A
!AIVDM,1,1,,A,13aGFDhP00PD<LbMTv200?wL2D4e,0*40
!AIVDO,1,1,,A,B39qLF00=@4seBWIR>rckwW5kP06,0*2A
$PAMC,R,TXT,000,TX_PWR,Lv=0,2007,1.617*12
$GPRMC,160247.00,A,5143.35859,N,00418.62491,E,6.034,280.78,241015,,,A*6B
!AIVDM,1,1,,A,139jMt001FPC`FLMSK=jG1sN2608,0*05
!AIVDM,1,1,,B,133ljIPP00PD84tMTj=0sOwLR<3g,0*74
!AIVDM,1,1,,B,140UsDhP010D3svMdc>`rgwJ08K`,0*16
$GPVTG,280.78,T,,M,6.034,N,11.176,K,A*09
$GPGGA,160247.00,5143.35859,N,00418.62491,E,1,08,0.98,-1.3,M,46.0,M,,*7A
$GPGSA,M,3,23,17,03,06,31,09,32,01,,,,,1.88,0.98,1.60*00
$GPGSV,3,1,12,01,21,146,26,02,07,313,10,03,55,086,18,06,41,302,20*7C
$GPGSV,3,2,12,09,44,212,27,11,02,157,25,12,01,322,10,17,29,238,17*72
!AIVDO,1,1,,,B39qLF00?04se4WIR?6gOwWUkP06,0*6A
!AIVDM,1,1,,B,13aEO8hP00PDBdvMRGlh0?wN20Se,0*56
$GPGSV,3,3,12,23,76,145,29,25,04,358,19,31,18,038,15,32,18,087,19*7F
$GPGLL,5143.35859,N,00418.62491,E,160247.00,A,A*6B
!AIVDM,1,1,,A,13GR4KPP00PD>;2MU:<smOwP2@L5,0*0E
!AIVDM,1,1,,A,13aDrcpP?w<tSF0l4Q@>4?wv0l5:,0*3B
!AIVDM,1,1,,A,13aDod1P1BPCh2nMSg;J<gwBRHL:,0*35
!AIVDM,1,1,,A,139f0`?P02PDQK2MTu4ImgwP2608,0*4A
$GPRMC,160248.00,A,5143.35865,N,00418.62282,E,5.383,281.39,241015,,,A*67
$GPVTG,281.39,T,,M,5.383,N,9.969,K,A*3E
$GPGGA,160248.00,5143.35865,N,00418.62282,E,1,08,0.98,-1.0,M,46.0,M,,*7D
$GPGSA,M,3,23,17,03,06,31,09,32,01,,,,,1.88,0.98,1.60*00
!AIVDM,1,1,,A,13aDp2hP000D9hrMThpU`gv82HLD,0*43
!AIVDM,1,1,,A,13aDp`?P1DPD5jbMTls0>wwRRD7>,0*67
$GPGSV,3,1,12,01,21,146,24,02,07,313,10,03,55,086,19,06,41,302,19*75
$GPGSV,3,2,12,09,44,212,24,11,02,157,24,12,01,322,10,17,29,238,20*74
!AIVDM,1,1,,B,13aDqIgP000D15RMScqJJgwPR8LJ,0*0F
!AIVDO,1,1,,,B39qLF00=@4sdr7IR?:gow`5kP06,0*44
$GPGSV,3,3,12,23,76,145,29,25,04,358,20,31,18,038,15,32,18,087,19*75
$GPGLL,5143.35865,N,00418.62282,E,160248.00,A,A*6F
!AIVDM,2,1,5,A,53aDqIT000010C;GOD0IDDiA84q>3H000000001@8P:26tb=06CBC32CQiCP,0*22
!AIVDM,2,2,5,A,00000000000,2*21
!AIVDM,1,1,,B,13aC1uhP0q0D4D8MTEni?OwN0D3w,0*26
!AIVDM,1,1,,A,10b`pthP00PC66bMT3M00?wP2@LW,0*7E
!AIVDM,1,1,,B,13aBNJ0P00PCV<hMV3bbmgwP2HL`,0*22
!AIVDM,1,1,,A,13aC5K@P00PD?MLMU9B00?wQ2<0J,0*4C
$GPRMC,160249.00,A,5143.35922,N,00418.62089,E,5.051,283.94,241015,,,A*64
!AIVDM,1,1,,B,13aEOuPP1NPCi@RMSc;S0OwRR8Lj,0*2D
!AIVDM,1,1,,A,83aO?p0j2d<dtudL<R9QA?be0000,0*4E
$GPVTG,283.94,T,,M,5.051,N,9.354,K,A*33
$GPGGA,160249.00,5143.35922,N,00418.62089,E,1,08,0.98,-0.7,M,46.0,M,,*71
!AIVDM,1,1,,B,139O8tPP1Q0D<mbMbSjJqwwN0<5r,0*12
!AIVDM,1,1,,A,13aDB9@P0j<tSF0l4Q@4T?wp00RE,0*5B
$GPGSA,M,3,23,17,03,06,31,09,32,01,,,,,1.88,0.98,1.60*00
$GPGSV,3,1,12,01,21,146,25,02,07,313,09,03,55,086,18,06,41,302,21*76
!AIVDM,1,1,,B,13aGEDPP1RPC`92MSOn9H?wRR<2k,0*78
$GPGSV,3,2,12,09,44,212,24,11,02,157,24,12,01,322,10,17,29,238,24*70
!AIVDM,1,1,,A,13aDCoP000PChqvMWB:@047R2608,0*7E
!AIVDO,1,1,,,B39qLF00<P4sdh7IR?RiOw`UkP06,0*69
$GPGSV,3,3,12,23,76,145,28,25,04,358,21,31,18,038,15,32,18,087,18*74
$GPGLL,5143.35922,N,00418.62089,E,160249.00,A,A*65
!AIVDM,1,1,,A,13aIiI0P00PCo5rMaTpP0?wR2608,0*09
!AIVDM,1,1,,A,13aEQ5@P00PD;cHMTwFLawwT2<7B,0*5A
$GPRMC,160250.00,A,5143.35993,N,00418.61865,E,5.060,286.46,241015,,,A*67
$GPVTG,286.46,T,,M,5.060,N,9.370,K,A*3D
!AIVDM,1,1,,B,13aDCePP0qPCc@2MdLe4GwwR2@ML,0*35
$GPGGA,160250.00,5143.35993,N,00418.61865,E,1,08,0.98,-0.7,M,46.0,M,,*7A
$GPGSA,M,3,23,17,03,06,31,09,32,01,,,,,1.88,0.98,1.60*00
!AIVDM,1,1,,B,33aEPqPP00PDAtHMRL@h0?wT2Ak3,0*35
$GPGSV,3,1,12,01,21,146,26,02,07,313,15,03,55,086,21,06,41,302,22*71
$GPGSV,3,2,12,09,44,212,24,11,02,157,23,12,01,322,10,17,29,238,13*73
!AIVDO,1,1,,,B39qLF00<P4sdU7IR?vk3wa5kP06,0*6F
$GPGSV,3,3,12,23,76,145,27,25,04,358,21,31,18,038,15,32,18,087,17*74
$GPGLL,5143.35993,N,00418.61865,E,160250.00,A,A*6E
!AIVDM,1,1,,A,13aDor@P19PCC>VMRc>jSOwT2<4`,0*71
!AIVDM,1,1,,A,13cK@d0000PE1k<MTmAj8JWV2L=F,0*72
$GPRMC,160251.00,A,5143.36053,N,00418.61602,E,5.689,287.15,241015,,,A*69
$GPVTG,287.15,T,,M,5.689,N,10.536,K,A*07
!AIVDM,1,1,,A,33aDq@0P1>PDVrjMU3ECQ?wT2393,0*6C
$GPGGA,160251.00,5143.36053,N,00418.61602,E,1,08,0.98,0.1,M,46.0,M,,*59
$GPGSA,M,3,23,17,03,06,31,09,32,01,,,,,1.88,0.98,1.60*00
!AIVDM,1,1,,A,133oTQPP1JPCMB0MRwBjU?wB2608,0*39
$GPGSV,3,1,12,01,21,146,25,02,07,313,16,03,55,086,22,06,41,302,22*72
!AIVDM,1,1,,B,13aO?p0P0=PD7jfMTbqR@wwV28N7,0*39
$GPGSV,3,2,12,09,44,212,26,11,02,157,22,12,01,322,14,17,29,238,15*72
!AIVDM,1,1,,A,13aGFHhP010D>DnMU;:Vr?wT00S3,0*14
$GPGSV,3,3,12,23,76,145,26,25,04,358,21,31,18,038,15,32,18,087,17*75
!AIVDO,1,1,,,B39qLF00>04sdH7IR@FkOwaUkP06,0*43
$GPGLL,5143.36053,N,00418.61602,E,160251.00,A,A*66
!AIVDM,1,1,,B,13aBMMPP19PCPi0Mdn3DegwVR@N?,0*66
!AIVDM,1,1,,B,133mt>PP00PD>JbMU<?1QOwV2<3M,0*54
!AIVDM,1,1,,A,83aDqIPj2d<dteuLeiQPa?be7l00,0*23
!AIVDM,1,1,,B,139gq8PP1`PCJ4HMRroqR?wV2608,0*77
!AIVDM,1,1,,A,13aEQ3PP03PC5qPMSs3Pmgw`28NF,0*77
!AIVDM,1,1,,A,13`fLNpP0sPD9`JMV2B4H?w`20Sk,0*41
$GPRMC,160252.00,A,5143.36098,N,00418.61419,E,4.949,287.66,241015,,,A*63
$GPVTG,287.66,T,,M,4.949,N,9.165,K,A*3B
$GPGGA,160252.00,5143.36098,N,00418.61419,E,1,08,0.98,0.1,M,46.0,M,,*55
!AIVDM,1,1,,A,13aGF9PP0t0CkFJMSjh::?w`08NW,0*08
$GPGSA,M,3,23,17,03,06,31,09,32,01,,,,,1.88,0.98,1.60*00
$GPGSV,3,1,12,01,21,146,24,02,07,313,17,03,55,086,22,06,41,302,21*71
$GPGSV,3,2,12,09,44,212,26,11,02,157,20,12,01,322,14,17,29,238,21*77
!AIVDM,1,1,,A,B3aBLl@0<P52GEWIPV=43wqUkP06,0*01
$GPGSV,3,3,12,23,76,145,27,25,04,358,20,31,18,038,15,32,18,087,16*74
!AIVDO,1,1,,,B39qLF00<@4sd>WIR@Vkkwb5kP06,0*70
!AIVDM,1,1,,B,13WkrrPP1MPCk78MSi6r8ww`2608,0*77
$GPGLL,5143.36098,N,00418.61419,E,160252.00,A,A*6A
!AIVDM,1,1,,B,13aDqR@P00PD8TtMTd`ksOw`2<3w,0*2A
$GPRMC,160253.00,A,5143.36120,N,00418.61189,E,5.094,285.09,241015,,,A*6F
$GPVTG,285.09,T,,M,5.094,N,9.434,K,A*39
$GPGGA,160253.00,5143.36120,N,00418.61189,E,1,08,0.98,0.3,M,46.0,M,,*58
$GPGSA,M,3,23,17,03,06,31,09,32,01,,,,,1.88,0.98,1.60*00
$GPGSV,3,1,12,01,21,146,25,02,07,313,18,03,55,086,25,06,41,302,19*73
$GPGSV,3,2,12,09,44,212,27,11,02,157,18,12,01,322,14,17,29,238,24*78
!AIVDM,1,1,,A,13b3;v0P00PC<2NM`1Lh0?wb2HOD,0*58
!AIVDM,1,1,,B,133v`NPP1TPCnh:MSibk0gwb2<7P,0*53
$GPGSV,3,3,12,23,76,143,28,25,04,358,20,31,18,038,18,32,18,087,17*71
!AIVDO,1,1,,,B39qLF00<P4sd37IR@jj;wbUkP06,0*00
$GPGLL,5143.36120,N,00418.61189,E,160253.00,A,A*65
!AIVDM,1,1,,B,13aPO2PP00PD;m`MTuj20?wb2HOI,0*1B
!AIVDM,1,1,,B,13aGushP00PDERjMU9sk>?wb20S3,0*19
!AIVDM,1,1,,B,13aGF4P000PD;:bMTu5001Qb2<4q,0*74
!AIVDM,1,1,,A,13aDr;@P00PC;gVMWwb00?w`R0S=,0*6A
!AIVDM,1,1,,A,18I1kv000FPCvhDMdTf3oS7b0<<P,0*54
!AIVDM,1,1,,B,13aC26hP1QPDQ<4MU5MkhgwbR@OV,0*0E
$GPRMC,160254.00,A,5143.36174,N,00418.60959,E,5.215,284.80,241015,,,A*66
$GPVTG,284.80,T,,M,5.215,N,9.658,K,A*3A
!AIVDM,1,1,,A,13aEPShP00PD0eVMSeKh0?wd2@Oi,0*3C
$GPGGA,160254.00,5143.36174,N,00418.60959,E,1,08,0.98,0.0,M,46.0,M,,*59
$GPGSA,M,3,23,17,03,06,31,09,32,01,,,,,1.88,0.98,1.60*00
$GPGSV,3,1,12,01,21,146,21,02,07,313,17,03,55,086,25,06,41,302,18*79
$GPGSV,3,2,12,09,44,212,28,11,02,157,17,12,01,322,14,17,29,238,24*78
!AIVDM,1,1,,A,13aDr90P000D?;0MU??cGwwfR@Os,0*1E
$GPGSV,3,3,12,23,76,143,28,25,04,358,19,31,18,038,22,32,18,087,18*7D
!AIVDO,1,1,,,B39qLF00=04scoWIRA6j3wc5kP06,0*6E
$GPGLL,5143.36174,N,00418.60959,E,160254.00,A,A*67
!AIVDM,1,1,,A,13aEPk@P00PD8JFMTd6P0?wd28Ow,0*3E
!AIVDM,1,1,,B,139eoBPP1MPC`QfMSMbBN?wd2<36,0*74
!AIVDM,1,1,,B,13aDpn0P010D>wBMU>@o6gwbP608,0*21
!AIVDM,1,1,,B,13aC2QPP1d0CjN>MSelS7gwbPD3w,0*0B
!AIVDM,1,1,,A,13aEP6PP00PD>d0MU<e8j?wD28PC,0*1E
$GPRMC,160255.00,A,5143.36256,N,00418.60660,E,6.174,285.69,241015,,,A*60
$GPVTG,285.69,T,,M,6.174,N,11.435,K,A*0B
$GPGGA,160255.00,5143.36256,N,00418.60660,E,1,08,0.98,0.3,M,46.0,M,,*5D
$GPGSA,M,3,23,17,03,06,31,09,32,01,,,,,1.88,0.98,1.60*00
!AIVDM,1,1,,A,14Qvm`000G0CwapMdTND1Hch0608,0*60
!AIVDM,1,1,,B,13aEOuPP1OPCiIRMScFC1gwfR<6?,0*7E
!AIVDM,1,1,,A,13aEOS?P00PD?0LMU>7o7OwdR<2H,0*25
$GPGSV,3,1,12,01,21,146,19,02,07,313,16,03,55,086,22,06,41,302,19*75
$GPGSV,3,2,12,09,44,212,28,11,02,157,17,12,01,322,14,17,29,238,26*7A
!AIVDM,1,1,,B,34`Vpd50010DElnMd1tWpWif2000,0*26
$GPGSV,3,3,12,23,76,143,28,25,04,357,20,31,18,038,24,32,18,087,16*70
!AIVDO,1,1,,,B39qLF00?@4sca7IRAVjSwcUkP06,0*12
$GPGLL,5143.36256,N,00418.60660,E,160255.00,A,A*60
$GPRMC,160256.00,A,5143.36334,N,00418.60418,E,6.047,286.92,241015,,,A*6D
!AIVDM,1,1,,A,139e1l0P1MPClH<MSkG9pOwfR<3t,0*3E
$GPVTG,286.92,T,,M,6.047,N,11.199,K,A*0E
!AIVDM,1,1,,A,13aIin?P00PDDs6MU6jP0?wh20S0,0*14
!AIVDM,1,1,,B,13aFg>hP1IPD>pVMb2lS7Owh2L3d,0*79
$GPGGA,160256.00,5143.36334,N,00418.60418,E,1,08,0.98,0.2,M,46.0,M,,*57
$GPGSA,M,3,23,17,03,06,31,09,32,01,,,,,1.88,0.98,1.60*00
$GPGSV,3,1,12,01,21,146,14,02,07,313,15,03,55,086,22,06,41,302,20*71
!AIVDM,1,1,,B,139jMt001FPC`PrMSKc2G1sh20SH,0*1B
!AIVDM,1,1,,A,13aENk0P00PD7m>MTa`C4?wh2608,0*76
$GPGSV,3,2,12,09,44,212,29,11,02,157,16,12,01,322,14,17,29,238,26*7A
$GPGSV,3,3,12,23,76,143,28,25,04,357,19,31,18,038,25,32,18,087,16*7B
$GPGLL,5143.36334,N,00418.60418,E,160256.00,A,A*6B
!AIVDO,1,1,,,B39qLF00?04scLWIRB6kGwd5kP06,0*3E
!AIVDM,1,1,,A,13aGv>hP1CPDK3lMb8JS:wwh20S5,0*38
!AIVDM,2,1,6,A,53aIin4000010O;?3@0hTq5DDp@638000000001530133vWe00PTUBCSRDli,0*10
!AIVDM,2,2,6,A,@0000000000,2*52
!AIVDM,1,1,,B,34QsF`hOh>0DN9VMdh0CaTAh00ui,0*30
!AIVDM,1,1,,B,13aGFDhP00PD<LpMTv1h0?wj2D4f,0*2F
$GPRMC,160257.00,A,5143.36356,N,00418.60206,E,5.481,285.08,241015,,,A*6C
$GPVTG,285.08,T,,M,5.481,N,10.152,K,A*05
!AIVDM,1,1,,A,1340QuPP0<PD8irMTg@j2gwjR608,0*4F
$GPGGA,160257.00,5143.36356,N,00418.60206,E,1,08,0.98,-0.2,M,46.0,M,,*76
$GPGSA,M,3,23,17,03,06,31,09,32,01,,,,,1.88,0.98,1.60*00
$GPGSV,3,1,12,01,21,146,18,02,07,313,16,03,55,086,25,06,41,302,20*79
$GPGSV,3,2,12,09,44,212,28,11,02,157,17,12,01,322,12,17,29,238,28*72
!AIVDM,2,1,7,A,53aDCoT000010??G3P1<TqB04q@tpUE<000000152@B71w?P00CRAEEiA2BR,0*6B
!AIVDM,2,2,7,A,p52ACQiCAE0,2*29
$GPGSV,3,3,12,23,76,143,32,25,04,357,18,31,18,038,22,32,18,087,17*77
$GPGLL,5143.36356,N,00418.60206,E,160257.00,A,A*67
!AIVDO,1,1,,,B39qLF00=P4scB7IRB>j;wdUkP06,0*27
!AIVDM,1,1,,B,13P>:b?P000BPa:MabBEgOwl0D<K,0*7E
!AIVDM,1,1,,B,13aDp`?P1CPD5kjMTmkP@?wlR8Qo,0*50
!AIVDM,1,1,,A,13aBNJ0P000CV=@MV3VsAOwj2@Qs,0*75
!AIVDM,1,1,,A,13aC1uhP0r0D4GtMTFEi;Owh08R1,0*38
!AIVDM,1,1,,A,13aEOuPP1OPCiL6MScIC1wwlR0S5,0*6A
$GPRMC,160258.00,A,5143.36404,N,00418.59963,E,5.774,284.08,241015,,,A*69
$GPVTG,284.08,T,,M,5.774,N,10.693,K,A*07
$GPGGA,160258.00,5143.36404,N,00418.59963,E,1,08,0.98,0.5,M,46.0,M,,*51
$GPGSA,M,3,23,17,03,06,31,09,32,01,,,,,1.87,0.98,1.60*0F
$GPGSV,3,1,12,01,21,146,19,02,07,313,16,03,55,086,27,06,41,302,23*79
$GPGSV,3,2,12,09,44,212,26,11,02,157,21,12,01,322,12,17,29,238,30*70
$GPGSV,3,3,12,23,76,143,33,25,04,357,17,31,18,038,22,32,18,087,18*76
$GPGLL,5143.36404,N,00418.59963,E,160258.00,A,A*6A
!AIVDO,1,1,,,B39qLF00>@4sc67IRBRiSwe5kP06,0*26
!AIVDM,1,1,,B,13aJIs?P00PD@1LMU;RnRwwl2@RI,0*38
!AIVDM,1,1,,B,13aDod1P1BPCgn<MSg1b<gw`RD2v,0*09
!AIVDM,1,1,,B,13aDB9@P0i<tSF0l4Q@4JOwp0@RN,0*4E
!AIVDM,1,1,,B,13aIiI0P00PCo5hMaTq@0?wl2<7s,0*79
!AIVDM,1,1,,A,13aGD:PP00PD?VbMU:4@0?wn2<7U,0*4F
$GPRMC,160259.00,A,5143.36457,N,00418.59716,E,5.694,285.01,241015,,,A*65
$GPVTG,285.01,T,,M,5.694,N,10.546,K,A*0B
$GPGGA,160259.00,5143.36457,N,00418.59716,E,1,08,0.98,0.2,M,46.0,M,,*5D
!AIVDM,1,1,,A,13aDqIgP000D15FMSd1bJgwlR8Rf,0*79
!AIVDM,1,1,,B,13aC5K@P00PD?MLMU9BP0?wo2608,0*69
$GPGSA,M,3,23,17,03,06,31,09,32,01,,,,,1.87,0.98,1.60*0F
$GPGSV,3,1,12,01,21,146,17,02,07,313,16,03,55,086,27,06,41,302,24*70
!AIVDM,1,1,,A,33aDq3PP0hPD4KnMSIuUT?wn231C,0*6A
$GPGSV,3,2,12,09,44,212,25,11,02,157,21,12,01,322,12,17,29,238,30*73
!AIVDM,1,1,,A,13aIin@P00PD@FjMU<qN4?wn2L7V,0*75
$GPGSV,3,3,12,23,76,143,33,25,04,357,16,31,18,038,22,32,18,087,18*77
!AIVDM,1,1,,B,13aDCoP000PChqpMWB;0047n28Rq,0*13
$GPGLL,5143.36457,N,00418.59716,E,160259.00,A,A*61
!AIVDO,1,1,,,B39qLF00>04sbqWIRBnj;weUkP06,0*47
!AIVDM,1,1,,B,13aFgbwP000CtU4Md:Eu0gwnPV08,0*27
!AIVDM,1,1,,A,402E3MQuvd@2sPCgs2Md@WG00608,0*6E
$GPRMC,160300.00,A,5143.36498,N,00418.59473,E,5.642,284.21,241015,,,A*63
$GPVTG,284.21,T,,M,5.642,N,10.449,K,A*0D
!AIVDM,2,1,8,A,53`fLNl000010O?CCP0Ptu20u21`DLDp000000153P141t0Ht03UC@CTi3lT,0*10
!AIVDM,2,2,8,A,88000000000,2*2C
$GPGGA,160300.00,5143.36498,N,00418.59473,E,1,08,0.98,0.5,M,46.0,M,,*54
$GPGSA,M,3,23,17,03,06,31,09,32,01,,,,,1.87,0.98,1.60*0F
$GPGSV,3,1,12,01,21,146,18,02,07,313,16,03,55,086,27,06,41,302,24*7F
$GPGSV,3,2,12,09,44,212,25,11,02,157,21,12,01,322,12,17,29,238,30*73
!AIVDM,1,1,,A,13bPv>00000D8D2MdVs@Q7D20<A:,0*4F
$GPGSV,3,3,12,23,76,143,32,25,04,357,14,31,18,038,23,32,18,087,16*7B
$GPGLL,5143.36498,N,00418.59473,E,160300.00,A,A*6F
!AIVDO,1,1,,,B39qLF00>04sbeWIRC6icwf5kP06,0*32
!AIVDM,1,1,,A,133mt>PP00PD>JrMU<?ia?v02<3:,0*4F
!AIVDM,1,1,,B,133oTQPP1JPCML>MRwaBTOwT2H0N,0*5E
!AIVDM,1,1,,A,83aDCoPj2d<dtMfNL0dpchO82P00,0*77
!AIVDM,1,1,,B,13aEOuPP1OPCiOvMScMS2gv2RD6A,0*17
$GPRMC,160301.00,A,5143.36526,N,00418.59233,E,5.374,282.15,241015,,,A*65
$GPVTG,282.15,T,,M,5.374,N,9.953,K,A*32
!AIVDM,1,1,,B,13aGFHhP010D>DhMU;;W5?wn0@0d,0*28
!AIVDM,1,1,,B,83aDCbhj2d<dtfLttB`ho?aE9I00,0*36
$GPGGA,160301.00,5143.36526,N,00418.59233,E,1,08,0.98,0.1,M,46.0,M,,*57
$GPGSA,M,3,23,17,03,06,31,09,32,01,,,,,1.87,0.98,1.59*05
$GPGSV,3,1,12,01,21,146,21,02,07,313,16,03,55,086,27,06,41,302,24*75
!AIVDM,1,1,,A,83`fLNhj2d<dteLdL0S`L@OU00`0,0*15
$GPGSV,3,2,12,09,44,212,26,11,02,157,22,12,01,322,12,17,29,238,30*73
$GPGSV,3,3,12,23,76,143,31,25,04,357,13,31,18,037,23,32,18,087,13*75
$GPGLL,5143.36526,N,00418.59233,E,160301.00,A,A*68
!AIVDM,1,1,,B,13aGF9PP0t0Ck>lMSja::gv2060<,0*4C
!AIVDO,1,1,,,B39qLF00=@4sbQWIRCBhGwfUkP06,0*44
!AIVDM,1,1,,A,13aDqR@P00PD8TtMTd`ksOv22D3w,0*02
!AIVDM,1,1,,B,13b3;v0P00PC<2DM`1M@0?v4260<,0*56
!AIVDM,1,1,,B,13aEQ3PP03PC5qpMSs41Vgv42<85,0*5D
$GPRMC,160302.00,A,5143.36577,N,00418.58960,E,5.712,282.55,241015,,,A*6E
$GPVTG,282.55,T,,M,5.712,N,10.578,K,A*0F
$GPGGA,160302.00,5143.36577,N,00418.58960,E,1,08,0.98,0.0,M,46.0,M,,*5D
$GPGSA,M,3,23,17,03,06,31,09,32,01,,,,,1.87,0.98,1.59*05
!AIVDM,1,1,,A,13`h5HOP00PD0BpMSghn>Ov4260<,0*1C
$GPGSV,3,1,12,01,21,146,24,02,07,313,19,03,55,086,27,06,41,302,25*7E
$GPGSV,3,2,12,09,44,212,29,11,02,157,24,12,01,322,12,17,29,238,31*7B
!AIVDM,1,1,,B,13aDq9PP00PCaMpMd4lr`gv4RD3w,0*11
$GPGSV,3,3,12,23,76,143,31,25,04,357,12,31,18,037,21,32,18,087,11*74
$GPGLL,5143.36577,N,00418.58960,E,160302.00,A,A*63
!AIVDO,1,1,,,B39qLF00>@4sbD7IRCVhWwg5kP06,0*57
!AIVDM,1,1,,B,13aDq@0P1>PDW80MU3ESPOv4281`,0*2C
!AIVDM,1,1,,A,13aEOhhP1iPCqFRMbuRtk?v420RA,0*4A
$GPRMC,160303.00,A,5143.36652,N,00418.58698,E,6.099,284.83,241015,,,A*69
!AIVDM,1,1,,A,13WkrrPP1MPCjrRMShqb7Ov62D1t,0*53
$GPVTG,284.83,T,,M,6.099,N,11.296,K,A*03
!AIVDM,1,1,,B,13aEPShP00PD0eVMSeLP0?v62<6u,0*4A
$GPGGA,160303.00,5143.36652,N,00418.58698,E,1,08,0.98,0.0,M,46.0,M,,*50
$GPGSA,M,3,23,17,03,06,31,09,32,01,,,,,1.87,0.98,1.59*05
!AIVDM,1,1,,B,13`fLNpP0rPD9ifMV1uTMOv62<7`,0*73
$GPGSV,3,1,12,01,21,146,24,02,07,313,20,03,55,086,26,06,41,302,24*74
$GPGSV,3,2,12,09,44,212,30,11,02,157,25,12,01,322,,17,29,238,30*70
!AIVDM,1,1,,A,133v`NPP1TPCnudMSip30Ov62<7P,0*24
$GPGSV,3,3,12,23,76,143,30,25,04,357,10,31,18,037,19,32,18,087,13*7E
!AIVDM,1,1,,A,13aC26hP1QPDQH<MU5H3gwv4RH24,0*73
$GPGLL,5143.36652,N,00418.58698,E,160303.00,A,A*6E
!AIVDO,1,1,,,B39qLF00?04sb6WIRD6j3wgUkP06,0*55
!AIVDM,1,1,,B,13aEPk@P00PD8JJMTd6@0?v62H2?,0*37
!AIVDM,1,1,,B,35D>qh5000PCTGpMdEBPvU460000,0*6A
$GPRMC,160304.00,A,5143.36687,N,00418.58444,E,5.907,283.72,241015,,,A*61
$GPVTG,283.72,T,,M,5.907,N,10.940,K,A*06
$GPGGA,160304.00,5143.36687,N,00418.58444,E,1,08,0.98,0.1,M,46.0,M,,*5D
!AIVDM,1,1,,B,133kf2PP00PD;H4MTsr<6gv:R82P,0*49
$GPGSA,M,3,23,17,03,06,31,09,32,01,,,,,1.87,0.98,1.59*05
!AIVDM,1,1,,A,13aGEg0P0NPC?i`MSdUu4gv:282O,0*29
$GPGSV,3,1,12,01,21,146,23,02,07,313,19,03,55,086,26,06,41,302,24*79
!AIVDM,1,1,,A,13aC2QPP1c0CjdvMSf2k4Ov6P0SP,0*45
$GPGSV,3,2,12,09,44,212,30,11,02,157,25,12,01,322,,17,29,238,30*70
$GPGSV,3,3,12,23,76,143,30,25,04,357,11,31,18,037,19,32,18,087,17*7B
!AIVDM,1,1,,B,13aDr90P000D?;8MU??KGwv:R0Ro,0*11
$GPGLL,5143.36687,N,00418.58444,E,160304.00,A,A*62
!AIVDO,1,1,,,B39qLF00>h4sar7IRDBiGwh5kP06,0*47
!AIVDM,1,1,,A,139eoBPP1MPC`eNMSN7jNOv82D36,0*40
!AIVDM,1,1,,A,139eA=>P1APCF7tMdbGVUOv82@2k,0*29
$GPRMC,160305.00,A,5143.36740,N,00418.58186,E,5.670,284.53,241015,,,A*6A
$GPVTG,284.53,T,,M,5.670,N,10.501,K,A*04
$GPGGA,160305.00,5143.36740,N,00418.58186,E,1,08,0.98,-0.4,M,46.0,M,,*75
!AIVDM,1,1,,B,133oAiP01F0DKmdMU>fc6pn<0837,0*49
$GPGSA,M,3,23,17,03,06,31,09,32,01,,,,,1.87,0.98,1.59*05
$GPGSV,3,1,12,01,21,146,22,02,07,313,18,03,55,086,26,06,41,302,22*7F
!AIVDM,1,1,,A,13aDpn0P010D>w@MU>A7;?v8P@3<,0*06
$GPGSV,3,2,12,09,44,212,30,11,02,157,24,12,01,322,,17,29,238,30*71
!AIVDM,1,1,,A,139beTPP000D>rPMU<WP0?v8P@3>,0*59
$GPGSV,3,3,12,23,76,143,30,25,04,357,14,31,18,037,21,32,18,087,19*7B
!AIVDM,1,1,,B,13aEP6PP00PD>d6MU<f``gwb2<33,0*23
$GPGLL,5143.36740,N,00418.58186,E,160305.00,A,A*62
!AIVDO,1,1,,,B39qLF00>04sae7IRDbiowhUkP06,0*60
!AIVDM,1,1,,A,13aDrb@P11PDOAFMU;0:oOv:2@3I,0*10
$GPRMC,160306.00,A,5143.36820,N,00418.57904,E,6.194,286.35,241015,,,A*61
!AIVDM,1,1,,A,13aGt5PP00PDF=FMdNbP0?v<2@3V,0*6D
$GPVTG,286.35,T,,M,6.194,N,11.472,K,A*0C
$GPGGA,160306.00,5143.36820,N,00418.57904,E,1,08,0.98,0.0,M,46.0,M,,*5B
$GPGSA,M,3,23,17,03,06,31,09,32,01,,,,,1.87,0.98,1.59*05
!AIVDM,1,1,,B,13aIin?P00PDDsDMU6jP0?v<2L7S,0*4B
$GPGSV,3,1,12,01,21,146,19,02,07,313,16,03,55,086,26,06,41,302,20*7B
$GPGSV,3,2,12,09,44,212,30,11,02,157,24,12,01,322,,17,29,238,29*79
!AIVDM,1,1,,B,13aDrBhP00PD;rfMTt=HROv<260<,0*76
$GPGSV,3,3,12,23,76,143,29,25,04,357,16,31,18,037,22,32,18,087,20*78
$GPGLL,5143.36820,N,00418.57904,E,160306.00,A,A*65
!AIVDO,1,1,,,B39qLF00?@4saO7IRE:jwwi5kP06,0*18
!AIVDM,1,1,,B,13aEOuPP1OPCiWhMScV31gv<R0S@,0*77
!AIVDM,1,1,,A,13aGFDhP00PD<M2MTv1h0?v>260<,0*16
$GPRMC,160307.00,A,5143.36927,N,00418.57592,E,6.946,289.97,241015,,,A*65
$GPVTG,289.97,T,,M,6.946,N,12.863,K,A*03
$GPGGA,160307.00,5143.36927,N,00418.57592,E,1,08,0.98,0.5,M,46.0,M,,*5A
$GPGSA,M,3,23,17,03,06,31,09,32,01,,,,,1.87,0.98,1.59*05
$GPGSV,3,1,12,01,21,146,18,02,07,313,15,03,55,086,26,06,41,302,16*7C
$GPGSV,3,2,12,09,44,212,29,11,02,157,22,12,01,322,,17,29,238,28*76
!AIVDM,1,1,,A,133qvlPP00PD>ujMd1sss?v@284F,0*53
$GPGSV,3,3,12,23,76,143,29,25,04,357,19,31,18,037,24,32,18,087,21*70
$GPGLL,5143.36927,N,00418.57592,E,160307.00,A,A*61
!AIVDM,1,1,,A,13GR4KPP00PD>;<MU:=;mwv@2<5=,0*6D
!AIVDO,1,1,,,B39qLF00A@4sa?WIREjm?wiUkP06,0*09
!AIVDM,1,1,,B,13aC1uhP0r0D4L0MTFpi:wv<0<3w,0*0E
!AIVDM,1,1,,B,1340QuPP0<PD8kFMTgF22gv>R@4V,0*6D
!AIVDM,1,1,,A,13aDp`?P1BPD5m4MTne@@gv@RH4c,0*7B
!AIVDM,1,1,,A,139f0`?P03PDQJnMTu2I?gv@20RM,0*42
$GPRMC,160308.00,A,5143.36995,N,00418.57313,E,6.743,291.54,241015,,,A*61
$GPVTG,291.54,T,,M,6.743,N,12.488,K,A*07
$GPGGA,160308.00,5143.36995,N,00418.57313,E,1,08,0.98,0.4,M,46.0,M,,*52
$GPGSA,M,3,23,17,03,06,31,09,32,01,,,,,1.87,0.98,1.59*05
$GPGSV,3,1,12,01,21,146,16,02,07,313,13,03,55,086,25,06,41,302,14*75
!AIVDM,1,1,,B,13aIin@P00PD@FnMU<qN4?v@2@4r,0*76
!AIVDM,1,1,,A,13aC2fPP00PDt?JMTveh0?v@2D7q,0*2C
$GPGSV,3,2,12,09,44,212,29,11,02,157,22,12,01,322,,17,29,238,28*76
!AIVDM,1,1,,A,13aDod1P1BPCgbhMSfpb<Ov4R84u,0*16
$GPGSV,3,3,12,23,76,143,29,25,04,357,19,31,18,037,24,32,18,087,21*70
$GPGLL,5143.36995,N,00418.57313,E,160308.00,A,A*68
!AIVDM,1,1,,A,13aJIs?P00PD@1BMU;RVF?v@20T2,0*71
!AIVDO,1,1,,,B39qLF00@h4sa1WIRF>n?wj5kP06,0*19
!AIVDM,1,1,,B,13aGD:PP00PD?VlMU:400?vB285B,0*0E
!AIVDM,1,1,,B,13aBNJ0P000CV=RMV3cKb?vB2D5g,0*67
$GPRMC,160309.00,A,5143.37070,N,00418.57046,E,6.543,292.88,241015,,,A*60
$GPVTG,292.88,T,,M,6.543,N,12.118,K,A*0B
$GPGGA,160309.00,5143.37070,N,00418.57046,E,1,08,0.98,0.3,M,46.0,M,,*54
$GPGSA,M,3,23,17,03,06,31,09,32,01,,,,,1.87,0.98,1.59*05
$GPGSV,3,1,12,01,21,146,15,02,07,313,11,03,55,086,25,06,41,302,15*75
!AIVDM,2,1,9,A,53aGFDl000010C;OSL0HhEHuA84q<0000000001?9H:37uEd?0Q3lT1CchCU,0*0C
!AIVDM,2,2,9,A,5iDT1C`5cUP,2*10
$GPGSV,3,2,12,09,44,212,29,11,02,157,21,12,01,322,,17,29,238,26*7B
$GPGSV,3,3,12,23,76,143,30,25,04,357,19,31,18,037,24,32,18,087,21*78
!AIVDM,1,1,,A,13aDCoP000PChqnMWB;h046B260<,0*5A
$GPGLL,5143.37070,N,00418.57046,E,160309.00,A,A*69
!AIVDM,1,1,,B,13aDCePP0rPCcNFMdL6lfwvB2@5W,0*14
!AIVDM,1,1,,A,13aC5K@P00PD?MLMU9Ah0?vC2D0J,0*7C
!AIVDM,1,1,,A,13aDB9@P0i<tSF0l4Q@4P?wp060<,0*41
!AIVDM,1,1,,B,13aGEDPP1RPCWi:MSNjqGgvBR<2h,0*1F
!AIVDO,1,1,,,B39qLF00@@4s`l7IRFfo3wjUkP06,0*38
!AIVDM,1,1,,A,10b`pthP00PC66hMT3Lh0?vB285m,0*05
!AIVDM,1,1,,A,13aEQ5@P01PD;cJMTwGLV?vD2D7D,0*48
$GPRMC,160310.00,A,5143.37109,N,00418.56791,E,6.159,291.14,241015,,,A*62
$GPVTG,291.14,T,,M,6.159,N,11.407,K,A*0A
!AIVDM,1,1,,A,13aEOuPP1OPCicbMScbS0wvDR0Rv,0*40
!AIVDM,1,1,,B,13aL>MhP00PBuLTMSmPjSwvD260<,0*69
$GPGGA,160310.00,5143.37109,N,00418.56791,E,1,08,0.98,0.3,M,46.0,M,,*5F
!AIVDM,1,1,,B,139gq8PP1`PCIdrMRqv9QOvB2<3s,0*68
$GPGSA,M,3,23,17,03,06,31,09,32,01,,,,,1.87,0.98,1.59*05
$GPGSV,3,1,12,01,21,146,19,02,07,313,10,03,55,086,22,06,41,302,20*79
$GPGSV,3,2,12,09,44,212,29,11,02,157,20,12,01,322,07,17,29,238,25*7E
$GPGSV,3,3,12,23,76,143,29,25,04,357,18,31,18,037,25,32,18,087,21*70
$GPGLL,5143.37109,N,00418.56791,E,160310.00,A,A*62
!AIVDM,1,1,,A,13cK@d0000PE1kBMTmAR8JVF2<=E,0*56
!AIVDO,1,1,,,B39qLF00?@4s`WWIRFrmwwk5kP06,0*2F
$GPRMC,160311.00,A,5143.37155,N,00418.56544,E,5.989,290.09,241015,,,A*6B
$GPVTG,290.09,T,,M,5.989,N,11.092,K,A*09
!AIVDM,1,1,,B,133mt>PP00PD>JrMU<?QG?vD20Sa,0*11
$GPGGA,160311.00,5143.37155,N,00418.56544,E,1,08,0.98,0.2,M,46.0,M,,*5C
$GPGSA,M,3,23,17,03,06,31,09,32,01,,,,,1.87,0.98,1.59*05
$GPGSV,3,1,12,01,21,146,24,02,07,313,10,03,55,086,19,06,41,302,23*7C
$GPGSV,3,2,12,09,44,212,28,11,02,157,21,12,01,322,07,17,29,238,27*7C
$GPGSV,3,3,12,23,76,143,29,25,04,357,17,31,18,037,25,32,18,087,18*75
$GPGLL,5143.37155,N,00418.56544,E,160311.00,A,A*60
!AIVDM,1,1,,B,13aO?p0P0=PD7mlMTc520gvF2H6l,0*33
!AIVDO,1,1,,,B39qLF00>h4s`K7IRG>mCwkUkP06,0*63
!AIVDM,1,1,,A,13aEQ3PP03PC5rFMSs525OvH20Rw,0*7A
!AIVDM,1,1,,A,13b3;v0P00PC<24M`1MP0?vH260<,0*49
!AIVDM,1,1,,A,13aGCJPP00PD>@`MU;HCAgvDR<62,0*57
$GPRMC,160312.00,A,5143.37172,N,00418.56310,E,5.631,288.64,241015,,,A*64
$GPVTG,288.64,T,,M,5.631,N,10.429,K,A*02
!AIVDM,1,1,,A,13aGDU0P1PPE4NFMUfbqjwvH20SH,0*6C
$GPGGA,160312.00,5143.37172,N,00418.56310,E,1,08,0.98,-0.3,M,46.0,M,,*71
$GPGSA,M,3,23,17,03,06,31,09,32,01,,,,,1.87,0.98,1.59*05
$GPGSV,3,1,12,01,21,146,28,02,07,313,12,03,55,086,17,06,41,302,25*7A
$GPGSV,3,2,12,09,44,212,27,11,02,157,23,12,01,322,07,17,29,238,33*74
!AIVDM,1,1,,A,13aDq@0P1>PDWBtMU3FCOgvH2@7D,0*13
$GPGSV,3,3,12,23,76,143,29,25,04,357,17,31,18,037,25,32,18,087,16*7B
!AIVDM,1,1,,A,13aGF9PP0t0Ck5:MSjPr:?vH060<,0*49
$GPGLL,5143.37172,N,00418.56310,E,160312.00,A,A*61
!AIVDM,1,1,,B,13aEOhhP1jPCq>0MbvTdkOvH2H7I,0*5C
!AIVDM,1,1,,B,H3aL=gh55D5@U5DD00000000000,2*22
!AIVDM,1,1,,B,13WkrrPP1LPCjenMShe:7gvH20SS,0*51
!AIVDM,1,1,,B,13aEOuPP1OPCigRMScg30OvHR87P,0*6D
!AIVDO,1,1,,,B39qLF00>04s`?WIRGFlKwl5kP06,0*39
!AIVDM,1,1,,B,13aC26hP1QPDQUNMU5A3gOvHR87Q,0*42
!AIVDM,1,1,,B,13aGushP00PDEQvMU9u2f?vH260<,0*40
!AIVDM,1,1,,A,83aGFDhj2dddL>M<@1b@h?a@4HP0,0*67
$GPRMC,160313.00,A,5143.37214,N,00418.56070,E,5.753,288.98,241015,,,A*65
$GPVTG,288.98,T,,M,5.753,N,10.654,K,A*0C
!AIVDM,1,1,,A,13aDr90P00PD?;@MU?>cI?vLR87h,0*79
$GPGGA,160313.00,5143.37214,N,00418.56070,E,1,08,0.98,-0.7,M,46.0,M,,*72
$GPGSA,M,3,23,17,03,06,31,09,32,01,,,,,1.87,0.98,1.59*05
!AIVDM,1,1,,B,13aGEg0P0NPC?gvMSdnu3wvL2<3t,0*56
!AIVDM,1,1,,A,13`fLNpP0qPD9q2MV1fDLgvJ2D7e,0*14
$GPGSV,3,1,12,01,21,146,29,02,07,313,12,03,55,086,17,06,41,302,23*7D
$GPGSV,3,2,12,09,44,212,26,11,02,157,25,12,01,322,07,17,29,238,27*76
$GPGSV,3,3,12,23,76,143,29,25,04,357,16,31,18,037,23,32,18,087,18*72
$GPGLL,5143.37214,N,00418.56070,E,160313.00,A,A*66
!AIVDM,1,1,,A,233n<`PP19PE3FRMa=O;9gvJ260<,0*13
!AIVDM,1,1,,A,18I1kv000FPCvm`MdTa3oS6J0@81,0*42
!AIVDM,1,1,,B,133v`NPP1TPCo;6MSj530gvJ2H85,0*36
!AIVDO,1,1,,,B39qLF00>@4s`3WIRGVlWwlUkP06,0*29
$GPRMC,160314.00,A,5143.37255,N,00418.55833,E,5.691,289.30,241015,,,A*67
$GPVTG,289.30,T,,M,5.691,N,10.540,K,A*06
$GPGGA,160314.00,5143.37255,N,00418.55833,E,1,08,0.98,-1.0,M,46.0,M,,*7A
$GPGSA,M,3,23,17,03,06,31,09,32,01,,,,,1.87,0.98,1.59*05
$GPGSV,3,1,12,01,21,146,29,02,07,313,10,03,55,086,17,06,41,302,21*7D
!AIVDM,1,1,,A,13aEPShP00PD0eNMSeMP0?vL2D74,0*12
$GPGSV,3,2,12,09,44,212,25,11,02,157,26,12,01,322,13,17,29,238,25*71
$GPGSV,3,3,12,23,76,143,28,25,04,357,14,31,18,037,20,32,18,087,22*7B
$GPGLL,5143.37255,N,00418.55833,E,160314.00,A,A*68
!AIVDM,1,1,,B,139eoBPP1LPC`q:MSNUBLwvL2L36,0*2E
!AIVDM,1,1,,B,33`e>rmP0g0DuW0MTQ?u@gvJP33Q,0*78
!AIVDM,1,1,,A,13aEPk@P00PD8JBMTd5P0?vL2<6V,0*4C
!AIVDO,1,1,,,B39qLF00>04sWoWIRGnlkwm5kP06,0*57
!AIVDM,1,1,,A,33aDoUPP00PD:;jMU>wtS?vLR04Q,0*32
!AIVDM,1,1,,B,13aDpn0P010D>w@MU>AGiOvJP0SH,0*41
$GPRMC,160315.00,A,5143.37292,N,00418.55581,E,5.975,288.83,241015,,,A*65
!AIVDM,1,1,,B,13aC2QPP1c0CjsbMSfAk4?vJP<3w,0*71
$GPVTG,288.83,T,,M,5.975,N,11.065,K,A*09
$GPGGA,160315.00,5143.37292,N,00418.55581,E,1,08,0.98,-1.5,M,46.0,M,,*71
$GPGSA,M,3,23,17,03,06,31,09,32,01,,,,,1.87,0.98,1.59*05
$GPGSV,3,1,12,01,21,146,30,02,07,313,15,03,55,086,16,06,41,302,22*72
!AIVDM,1,1,,A,13aEOS?P00PD?0RMU>76VgvLR60<,0*7E
$GPGSV,3,2,12,09,44,212,24,11,02,157,26,12,01,322,19,17,29,238,23*7C
!AIVDM,1,1,,A,83aDoUPj2d<dL<e<=1v@q@2B6@t0,0*66
$GPGSV,3,3,12,23,76,143,27,25,04,357,15,31,18,037,18,32,18,087,23*7F
$GPGLL,5143.37292,N,00418.55581,E,160315.00,A,A*66
!AIVDM,1,1,,A,13aDrBhP00PD;rfMTt=HROvN2D2E,0*0E
!AIVDM,1,1,,A,13aDr;@P00PC;glMWwbP0?vLR<8M,0*0A
!AIVDM,1,1,,B,13aGFDhP00PD<M4MTv200?vN260<,0*38
!AIVDM,1,1,,A,13aEP6PP00PD>dBMU<hpIwv62@9@,0*23
!AIVDO,1,1,,,B39qLF00>h4sWc7IRH6lSwmUkP06,0*6C
!AIVDM,1,1,,B,139jMt001FPC`lTMSLQRIAtN260<,0*1A
$GPRMC,160316.00,A,5143.37346,N,00418.55365,E,5.632,291.74,241015,,,A*6E
$GPVTG,291.74,T,,M,5.632,N,10.430,K,A*00
$GPGGA,160316.00,5143.37346,N,00418.55365,E,1,08,0.98,-2.0,M,46.0,M,,*70
$GPGSA,M,3,23,17,03,06,31,09,32,01,,,,,1.87,0.98,1.59*05
$GPGSV,3,1,12,01,21,146,30,02,07,313,15,03,55,086,17,06,41,302,24*75
$GPGSV,3,2,12,09,44,212,22,11,02,157,25,12,01,322,21,17,29,238,25*74
$GPGSV,3,3,12,23,76,143,26,25,04,357,18,31,18,037,17,32,18,087,24*7B
!AIVDM,1,1,,B,139nEc0P00PC8<jMSosCfOvP289e,0*53
$GPGLL,5143.37346,N,00418.55365,E,160316.00,A,A*61
!AIVDM,1,1,,A,13aIin?P00PDDs@MU6l00?vP2D7R,0*4F
!AIVDO,1,1,,,B39qLF00>04sWP7IRHJnGwn5kP06,0*0E
!AIVDM,1,1,,A,13aGrPPP000DSm:MdaW@0?vP089r,0*65
!AIVDM,1,1,,B,233n<`PP19PE3CbMa=Sc:OvP260<,0*50
!AIVDM,1,1,,B,38KMt:50000Dp9LMU0sWg2HP0000,0*53
!AIVDM,1,1,,A,133ljIPP00PD84tMTj=0sOvPR@:1,0*49
$GPRMC,160317.00,A,5143.37412,N,00418.55152,E,5.544,295.58,241015,,,A*67
!AIVDM,1,1,,B,139f0`?P02PDQJjMTu292wvR20Si,0*1E
$GPVTG,295.58,T,,M,5.544,N,10.267,K,A*0C
$GPGGA,160317.00,5143.37412,N,00418.55152,E,1,08,0.98,-2.1,M,46.0,M,,*70
$GPGSA,M,3,23,17,03,06,31,09,32,01,,,,,1.87,0.98,1.59*05
$GPGSV,3,1,12,01,21,146,29,02,07,313,15,03,55,086,17,06,41,302,25*7C
!AIVDM,1,1,,A,1340QuPP0=PD8lhMTgL22OvRRH:<,0*64
!AIVDM,1,1,,A,13aEN<hP00PCeadMd2d00?vR28:=,0*50
$GPGSV,3,2,12,09,44,212,21,11,02,157,24,12,01,322,21,17,29,238,26*75
$GPGSV,3,3,12,23,76,143,25,25,04,357,19,31,18,037,19,32,18,087,24*77
!AIVDO,1,1,,B,B39qLF00=h4sWEWIRHnpgwnUkP06,0*18
$PAMC,R,TXT,000,TX_PWR,Lv=0,2007,1.617*12
$GPGLL,5143.37412,N,00418.55152,E,160317.00,A,A*60
!AIVDM,1,1,,A,13aBNJ0P000CV>JMV3VspwvR2H:K,0*17
!AIVDO,1,1,,,B39qLF00=h4sWEWIRHnpgwnUkP06,0*5A
!AIVDM,1,1,,B,13aDp`?P1APD5nFMToV0AOvTR<7=,0*5C
$GPRMC,160318.00,A,5143.37455,N,00418.54949,E,5.282,296.34,241015,,,A*6C
$GPVTG,296.34,T,,M,5.282,N,9.783,K,A*3F
$GPGGA,160318.00,5143.37455,N,00418.54949,E,1,08,0.98,-2.1,M,46.0,M,,*7F
$GPGSA,M,3,23,17,03,06,31,09,32,01,,,,,1.87,0.98,1.59*05
$GPGSV,3,1,12,01,21,146,28,02,07,313,15,03,55,086,19,06,41,302,26*70
$GPGSV,3,2,12,09,44,212,21,11,02,157,23,12,01,322,20,17,29,238,27*72
!AIVDM,1,1,,A,13aGD:PP00PD?VrMU:4@0?vT2H:l,0*24
$GPGSV,3,3,12,23,76,143,23,25,04,357,20,31,18,037,19,32,18,087,22*7D
!AIVDM,1,1,,B,10b`pthP00PC66nMT3M@0?vT28:n,0*33
$GPGLL,5143.37455,N,00418.54949,E,160318.00,A,A*6F
!AIVDM,1,1,,B,13aDB9@P0j<tSF0l4Q@4Qgwp0H:s,0*23
!AIVDM,1,1,,A,13aIin@P00PD@FtMU<qN4?vT20S`,0*7E
!AIVDM,1,1,,B,13aEOuPP1OPCioDMScok1OvTR60<,0*5B
!AIVDO,1,1,,,B39qLF00=04sW;7IRI6q?wo5kP06,0*7D
!AIVDM,1,1,,A,33aGuRmP00PD594MSFnN4?vTRJb0,0*2D
!AIVDM,1,1,,A,13aC1uhP0r0D4PFMTGOi7gvR0@;:,0*13
$GPRMC,160319.00,A,5143.37515,N,00418.54739,E,5.491,296.90,241015,,,A*6B
$GPVTG,296.90,T,,M,5.491,N,10.170,K,A*07
$GPGGA,160319.00,5143.37515,N,00418.54739,E,1,08,0.98,-2.1,M,46.0,M,,*72
!AIVDM,1,1,,B,13aIiI0P00PCo5rMaTt@0?vV28;B,0*64
$GPGSA,M,3,23,17,03,06,31,09,32,01,,,,,1.87,0.98,1.59*05
$GPGSV,3,1,12,01,21,146,28,02,07,313,15,03,55,086,22,06,41,302,27*79
$GPGSV,3,2,12,09,44,212,21,11,02,157,23,12,01,322,19,17,29,238,27*78
$GPGSV,3,3,12,23,76,143,20,25,04,357,20,31,18,037,17,32,18,087,20*72
$GPGLL,5143.37515,N,00418.54739,E,160319.00,A,A*62
!AIVDM,1,1,,B,13aDod1P1BPCgN6MSff:<OvJR60<,0*14
!AIVDM,1,1,,B,13aJIs?P00PD@1>MU;Rh0?vV20SJ,0*2F
!AIVDO,1,1,,,B39qLF00=P4sW0WIRINqWwoUkP06,0*06
$GPRMC,160320.00,A,5143.37595,N,00418.54543,E,5.513,299.17,241015,,,A*6D
$GPVTG,299.17,T,,M,5.513,N,10.211,K,A*08
$GPGGA,160320.00,5143.37595,N,00418.54543,E,1,08,0.98,-2.2,M,46.0,M,,*7C
$GPGSA,M,3,23,17,03,06,31,09,32,01,,,,,1.87,0.98,1.59*05
$GPGSV,3,1,12,01,21,146,26,02,07,313,15,03,55,086,24,06,41,302,27*71
$GPGSV,3,2,12,09,44,212,21,11,02,157,21,12,01,322,17,17,29,238,26*75
$GPGSV,3,3,12,23,76,143,19,25,04,357,18,31,18,037,15,32,18,087,16*74
$GPGLL,5143.37595,N,00418.54543,E,160320.00,A,A*6F
!AIVDM,1,1,,A,133mODPP0V0C38>MSphkL?vbR<2@,0*47
!AIVDM,1,1,,B,13aDCoP000PChqjMWB;h046`20Rl,0*4B
!AIVDM,1,1,,A,139gq8PP1aPCINLMRqJIQOv`2<3u,0*16
!AIVDO,1,1,,,B39qLF00=h4sVo7IRIvrwwp5kP06,0*64
!AIVDM,1,1,,B,13aGv9@P00PD0J`MSfTP0?v`260<,0*3D
!AIVDM,1,1,,B,133oTQPP1JPCMk<MS0JjRgvD260<,0*0D
$GPRMC,160321.00,A,5143.37670,N,00418.54325,E,5.665,299.60,241015,,,A*60
$GPVTG,299.60,T,,M,5.665,N,10.492,K,A*07
$GPGGA,160321.00,5143.37670,N,00418.54325,E,1,08,0.98,-2.3,M,46.0,M,,*72
$GPGSA,M,3,23,17,03,06,31,09,32,01,,,,,1.87,0.98,1.59*05
$GPGSV,3,1,12,01,21,146,25,02,07,313,13,03,55,086,25,06,41,302,25*77
